Place,Lat,Lon,Altitude_in_ft,Altitide_in_mt
Abdul,19.67,76.88,1420,430.30
Abhona,20.48,73.92,2096,635.15
Achalpur,21.26,77.51,1210,366.67
Achra,16.22,73.47,180,54.55
Adad,18.39,72.95,65,19.70
Adarki,17.92,74.22,2290,693.94
Adarki,17.92,74.22,2290,693.94
Adas,18.77,76.23,2326,704.85
Adavad,21.22,75.45,603,182.73
Adgaon,18.22,72.95,16,4.85
Adgaon,20.50,77.67,1243,376.67
Adhe,17.92,73.08,344,104.24
Adi,18.40,72.92,85,25.76
Adi,18.39,72.93,59,17.88
Adiura,16.72,73.35,213,64.55
Adivra,16.72,73.35,213,64.55
Adul,19.72,75.53,1794,543.64
Adul,20.93,77.22,912,276.36
Adul,19.72,75.53,1794,543.64
Adul,19.72,75.53,1794,543.64
Adyal,20.93,79.72,790,239.39
Adyar,20.93,79.72,790,239.39
Agar,18.18,72.99,16,4.85
Agashi,19.47,72.78,36,10.91
Agashi,19.15,73.47,364,110.30
Agva,17.38,73.52,354,107.27
Ahiri,19.40,80.02,396,120.00
Ahmadnagar,19.08,74.73,2129,645.15
Ahmadpur,18.70,76.93,1686,510.91
Ahmednagar,19.08,74.73,2129,645.15
Ahmedpur,18.70,76.93,1686,510.91
Ahupe,19.18,73.60,3169,960.30
Ainpur,21.17,76.03,784,237.58
Ajanta,20.53,75.75,1925,583.33
Ajni,21.15,79.10,997,302.12
Ajra,16.12,74.20,2165,656.06
Akalkot,17.53,76.22,1456,441.21
Akera,19.62,80.30,711,215.45
Akera,19.62,80.30,711,215.45
Aklui,17.90,75.03,1581,479.09
Akluj,17.90,75.03,1581,479.09
Akola,17.98,75.25,1643,497.88
Akola,20.73,77.00,928,281.21
Akola,19.53,74.00,2004,607.27
Akola,20.17,78.17,941,285.15
Akolner,18.98,74.67,2227,674.85
Akot,21.10,77.06,1131,342.73
Aksāpur,19.77,79.65,574,173.94
Alamgaon,19.73,75.77,1558,472.12
Alandi,18.67,73.90,1893,573.64
Alandi-Devachi,18.67,73.90,1893,573.64
Alate,16.77,74.40,1929,584.55
Ale,19.17,74.12,2178,660.00
Alegaon,18.60,74.32,1722,521.82
Alegaon,19.15,77.15,1164,352.73
Alegaon,20.40,76.83,1154,349.70
Alewabi,20.38,79.70,715,216.67
Alewahi,20.38,79.70,715,216.67
Alibagh,18.64,72.88,0,0.00
Alipur,20.57,78.68,790,239.39
Alkuti,19.05,74.23,2148,650.91
Alland,20.20,75.55,2083,631.21
Allapalli,19.42,80.07,482,146.06
Alora,17.47,73.57,236,71.52
Alta,17.17,74.53,1994,604.24
Alta,16.77,74.40,1929,584.55
Alur,17.70,76.42,1896,574.55
Alāpillai,19.42,80.07,482,146.06
Alībāg,18.64,72.88,0,0.00
Amalner,21.05,75.07,597,180.91
Amalner,18.93,75.33,2296,695.76
Amaravati,20.93,77.75,1125,340.91
Amarnāth,19.20,73.17,118,35.76
Amba,19.23,75.48,1620,490.91
Ambabarwa,21.23,76.65,2247,680.91
Ambad,19.62,75.80,1643,497.88
Ambajhari,21.05,78.83,1437,435.45
Ambalga,18.15,76.87,1968,596.36
Ambalga,18.15,76.87,1968,596.36
Ambaltek,18.77,76.57,1860,563.64
Ambarnath,19.20,73.17,118,35.76
Ambavli,17.72,73.55,620,187.88
Ambavna,18.62,73.37,2273,688.79
Ambe,18.73,76.38,2116,641.21
Ambegaon,19.12,73.73,2480,751.52
Ambejogai,18.73,76.38,2116,641.21
Ambepur,18.58,72.95,98,29.70
Ambewari,19.83,75.13,1686,510.91
Ambgaon,20.65,79.95,695,210.61
Ambhai,20.47,75.57,2214,670.91
Amboli,18.32,72.99,249,75.45
Amboli,17.72,73.55,620,187.88
Ambājogāi,18.73,76.38,2116,641.21
Ambāra,21.33,77.90,1295,392.42
Amdāpur,19.68,77.92,1056,320.00
Amgaon,20.65,79.95,695,210.61
Amgaon,21.37,80.37,1049,317.88
Amli,21.62,74.03,593,179.70
Amraoti,20.93,77.75,1125,340.91
Amrāvati,20.93,77.75,1125,340.91
Amārāpur,19.28,75.18,1663,503.94
Anaskura,16.78,73.80,1978,599.39
Andheri,19.12,72.83,39,11.82
Andhori,18.77,76.83,1768,535.76
Andhāri,20.27,75.48,2112,640.00
Andori,20.53,78.50,797,241.52
Andura,20.88,76.85,807,244.55
Ane,19.17,74.23,2670,809.09
Angar,17.90,75.57,1541,466.97
Angarle,17.85,73.09,36,10.91
Anjangaon,18.08,75.60,1558,472.12
Anjangaon,21.16,77.31,1227,371.82
Anjanvel,17.55,73.15,367,111.21
Anjarla,17.85,73.09,36,10.91
Anji,20.87,78.53,912,276.36
Anjih,20.87,78.53,912,276.36
Anjāla,21.10,75.75,643,194.85
Ankla,17.05,75.03,2106,638.18
Ankīsha,18.72,80.13,337,102.12
Anshing,20.03,77.32,1774,537.58
Ansing,20.03,77.32,1774,537.58
Antūr,20.43,75.23,2178,660.00
Anva,20.42,75.78,2057,623.33
Arag,16.78,74.80,1961,594.24
Arath,18.09,73.00,160,48.48
Arav,17.73,73.63,2211,670.00
Aravi,18.09,73.00,101,30.61
Ardhapur,19.28,77.38,1213,367.58
Aregaon,21.02,78.72,1174,355.76
Argaon,19.57,76.87,1354,410.30
Argaon,21.12,76.94,1000,303.03
Arjuni,20.82,80.03,800,242.42
Arjuni,21.10,80.15,843,255.45
Arla,17.08,73.92,1820,551.52
Arli,19.83,78.35,935,283.33
Arli,19.83,78.35,935,283.33
Armori,20.47,79.98,656,198.79
Arnala,19.45,72.75,19,5.76
Arnalla,19.45,72.75,19,5.76
Arni,20.07,77.95,1020,309.09
Arnālapāda,19.45,72.75,19,5.76
Arola,17.75,74.05,2112,640.00
Arvi,20.73,74.72,1194,361.82
Arvi,18.37,73.82,2716,823.03
Arvi,20.98,78.23,997,302.12
Arwi,19.13,73.95,2181,660.91
Asangaon,19.45,73.30,232,70.30
Asegaon,20.00,76.97,1650,500.00
Asgan,17.63,73.43,659,199.70
Asgani,17.63,73.43,659,199.70
Ashta,16.95,74.40,1860,563.64
Ashta,17.85,75.40,1597,483.94
Ashtami,18.45,73.13,39,11.82
Ashti,17.85,75.40,1597,483.94
Ashti,19.68,79.80,498,150.91
Ashti,21.20,78.18,1082,327.88
Ashti,18.82,75.18,1988,602.42
Ashwi,19.35,74.35,1948,590.30
Ashwi,19.52,74.37,1732,524.85
Asona,17.67,73.27,728,220.61
Asra,20.87,77.50,990,300.00
Assaye,20.25,75.88,1827,553.64
Assegaon,21.13,77.57,1154,349.70
Assoondee,19.87,80.28,961,291.21
Assundi,19.87,80.28,961,291.21
Astagaon,19.67,74.50,1709,517.88
Astgaon,19.67,74.50,1709,517.88
Asu,18.03,74.65,1732,524.85
Asumumbay,18.98,72.83,91,27.58
Atgaon,19.50,73.33,449,136.06
Atit,17.53,74.07,2014,610.30
Atpādi,17.42,74.95,1827,553.64
Aunda,19.53,77.05,1499,454.24
Aundah,19.53,77.05,1499,454.24
Aundh,17.55,74.33,2647,802.12
Aundh,20.23,80.45,1023,310.00
Aundhi,20.23,80.45,1023,310.00
Aurad,18.07,76.93,1771,536.67
Aurangabad,19.88,75.33,1866,565.45
Aure,18.83,73.00,29,8.79
Ausa,18.25,76.50,2080,630.30
Ausari,18.97,74.00,2116,641.21
Ausari,18.97,74.00,2116,641.21
Avalegaon,16.12,73.77,344,104.24
Avas,18.77,72.87,62,18.79
Babra,20.22,75.42,2165,656.06
Babupet,19.93,79.33,702,212.73
Babūlgaon,19.17,76.45,1322,400.61
Babūlgaon,20.57,78.17,849,257.27
Badlapur,19.15,73.27,144,43.64
Badnapur,19.87,75.73,1637,496.06
Badnera,20.87,77.73,1138,344.85
Baghnadi,21.07,80.45,1030,312.12
Bagmala,18.59,72.92,39,11.82
Bagni,16.90,74.37,1837,556.67
Bahardurpur,20.92,75.03,748,226.67
Bahela,21.40,80.52,977,296.06
Bahipur,20.57,75.00,954,289.09
Bahirevadi,16.28,74.32,2516,762.42
Bahirewādi,16.28,74.32,2516,762.42
Bahradi,20.37,75.55,2086,632.12
Bahādarpur,20.92,75.03,748,226.67
Bahādurpur,20.92,75.03,748,226.67
Bairāgarh,21.69,77.06,1076,326.06
Baitagaon,19.78,72.78,19,5.76
Bajegaon,18.93,77.63,1118,338.79
Balam,19.30,75.47,1564,473.94
Balam,19.10,75.48,1660,503.03
Balapur,19.53,77.40,1394,422.42
Balapur,20.67,76.77,875,265.15
Balayaduri,19.72,73.58,2234,676.97
Balgaon,17.18,75.60,1617,490.00
Balharshah,19.83,79.37,577,174.85
Ballalpur,19.83,79.35,574,173.94
Ballapur,19.83,79.37,577,174.85
Ballard,18.93,72.83,0,0.00
Ballarpur,19.83,79.35,574,173.94
Balsāna,21.17,74.48,1033,313.03
Bamangaon,18.63,72.94,68,20.61
Bamanpalli,19.27,80.42,606,183.64
Bambavdewadi,16.87,74.03,1781,539.70
Ban,21.68,74.32,767,232.42
Banati,20.50,75.35,1089,330.00
Banda,15.82,73.87,104,31.52
Bandra,19.07,72.83,39,11.82
Banoti,20.50,75.35,1089,330.00
Banpuri,17.35,74.87,2020,612.12
Bapane,19.35,72.90,45,13.64
Bapera,21.52,79.90,849,257.27
Baple,18.56,72.98,29,8.79
Bapsai,19.27,73.27,209,63.33
Barad,17.93,74.58,2030,615.15
Baragaon,19.92,74.05,2066,626.06
Baramati,18.15,74.58,1765,534.85
Barhānpur,19.85,72.93,141,42.73
Barkatpur,20.38,75.40,2086,632.12
Basegaon,20.17,73.75,2280,690.91
Basim,20.10,77.15,1791,542.73
Basmat,19.32,77.17,1246,377.58
Basmath,19.32,77.17,1246,377.58
Basnamba,19.77,77.20,1519,460.30
Bavda,16.53,73.83,2139,648.18
Bawanbir,21.09,76.71,951,288.18
Begampur,17.57,75.58,1473,446.36
Bel,19.60,74.83,1604,486.06
Bela,20.78,79.02,813,246.36
Belankhi,16.85,74.87,2053,622.12
Belanki,16.85,74.87,2053,622.12
Belapur,19.57,74.65,1653,500.91
Belapur,19.02,73.03,0,0.00
Belapurpāda,19.02,73.03,0,0.00
Belhe,19.12,74.18,2237,677.88
Belkhar,18.44,72.99,42,12.73
Belkāde,18.64,72.91,45,13.64
Belshakarga,18.32,77.17,2037,617.27
Belvandi,18.72,74.58,1883,570.61
Belvandi,18.72,74.58,1883,570.61
Bembal,19.93,79.73,564,170.91
Bemballa,19.93,79.73,564,170.91
Bembla,17.93,75.22,1633,494.85
Bemli,18.13,76.20,2011,609.39
Bendāri,20.95,80.47,1246,377.58
Bere,19.38,73.23,68,20.61
Bergaon,20.68,80.45,1259,381.52
Bergaon-Belgeum,16.60,74.50,1781,539.70
Betavad,20.77,75.97,1125,340.91
Betavad,21.17,74.92,541,163.94
Betavad,20.77,75.97,1125,340.91
Betergaon,18.47,75.23,1738,526.67
Betgaon,19.78,72.78,19,5.76
Betmogra,18.70,77.55,1164,352.73
Betāvad,20.77,75.97,1125,340.91
Bhada,18.27,76.40,2129,645.15
Bhadgaon,20.67,75.23,872,264.24
Bhadji,20.02,75.20,2260,684.85
Bhadkamba,16.97,73.70,1089,330.00
Bhadvad,21.32,74.10,652,197.58
Bhadvad,21.32,74.10,652,197.58
Bhairipāda,18.76,72.97,42,12.73
Bhaitana,20.60,73.90,2165,656.06
Bhalauni,19.12,74.55,2375,719.70
Bhalavani,17.70,75.13,1620,490.91
Bhalavni,17.70,75.13,1620,490.91
Bhalpada,18.77,73.00,42,12.73
Bhambhurda,18.53,73.83,1896,574.55
Bhambiya,17.53,73.88,2381,721.52
Bhambudra,18.53,73.83,1896,574.55
Bhamburda,18.53,73.83,1896,574.55
Bhamragarh,19.42,80.60,761,230.61
Bhanas,19.48,74.98,1686,510.91
Bhandak,20.10,79.12,721,218.48
Bhandāra,21.17,79.65,800,242.42
Bhans-Hivra,19.48,74.98,1686,510.91
Bhanwad,20.42,73.67,2319,702.73
Bharos,20.07,74.27,1824,552.73
Bhategaon,19.38,77.38,1305,395.45
Bhaudi,18.63,74.82,1899,575.45
Bhawani,19.98,75.88,1811,548.79
Bhaweghar,18.48,72.92,288,87.27
Bhayandar,19.30,72.85,9,2.73
Bhayndar,19.30,72.85,9,2.73
Bhayundar,19.30,72.85,9,2.73
Bhedshi,15.72,74.03,111,33.64
Bhendkhal,18.88,72.98,13,3.94
Bhigvan,18.32,74.77,1663,503.94
Bhilavadi,16.98,74.47,1801,545.76
Bhilavdi,16.98,74.47,1801,545.76
Bhir,18.98,75.77,1614,489.09
Bhiravda,16.30,73.83,1023,310.00
Bhirvāda,16.30,73.83,1023,310.00
Bhisi,20.63,79.40,882,267.27
Bhiwandi,19.30,73.07,78,23.64
Bhiwapur,20.77,79.52,833,252.42
Bhiwndi,19.30,73.07,78,23.64
Bhogaon,19.30,77.02,1292,391.52
Bhogaon,19.57,76.77,1354,410.30
Bhogaon,16.75,73.98,2096,635.15
Bhogaon,21.08,79.33,846,256.36
Bhokar,21.17,75.37,541,163.94
Bhokar,19.22,77.68,1512,458.18
Bhokardan,20.27,75.77,1925,583.33
Bhokarwādi,20.02,75.60,1975,598.48
Bhom,17.52,73.42,88,26.67
Bhonang,18.54,72.99,131,39.70
Bhoom,18.47,75.67,1975,598.48
Bhor,18.17,73.85,1929,584.55
Bhorvadi,19.28,74.83,1952,591.52
Bhos,19.62,75.45,1601,485.15
Bhosa,16.95,74.72,2093,634.24
Bhosa,17.80,75.28,1571,476.06
Bhose,16.95,74.72,2093,634.24
Bhoyar,18.35,76.40,2034,616.36
Bhudgaon,16.90,74.60,1814,549.70
Bhugaon,21.08,79.33,846,256.36
Bhun,16.72,73.47,374,113.33
Bhusaval,21.05,75.77,685,207.58
Bhusāwal,21.05,75.77,685,207.58
Bhālgaon,18.30,73.05,65,19.70
Bhāmarvādi,20.33,75.07,2204,667.88
Bhāmbourda,18.53,73.83,1896,574.55
Bhāmer,21.07,74.33,1738,526.67
Bhāndup,19.15,72.93,36,10.91
Bhāngar,17.83,73.25,488,147.88
Bhānoli,21.85,74.13,892,270.30
Bhātghar,18.17,73.87,1909,578.48
Bhātkuli,20.90,77.60,958,290.30
Bhīmāshankar,19.07,73.53,3103,940.30
Bhūm,18.47,75.67,1975,598.48
Bibi,20.02,76.37,1722,521.82
Bid,16.65,74.13,1738,526.67
Bid,18.98,75.77,1614,489.09
Bidh,18.98,75.77,1614,489.09
Bidkingaon,19.70,75.30,1617,490.00
Bidsangvi,18.88,75.23,2355,713.64
Bijur,18.73,77.58,1348,408.48
Bilashi,16.98,74.03,1942,588.48
Bilasi,16.98,74.03,1942,588.48
Biloli,18.77,77.73,1138,344.85
Bir,18.98,75.77,1614,489.09
Birjpara,20.05,73.27,866,262.42
Birvadi,18.12,73.50,377,114.24
Bitargaon,19.55,77.93,1269,384.55
Bitargaon,19.55,77.93,1269,384.55
Bitkevādi,18.65,74.88,1978,599.39
Boblad,16.98,75.65,1906,577.58
Boblad,17.22,75.43,1784,540.61
Bodhegaon,19.30,75.45,1604,486.06
Bodvad,20.88,75.98,1020,309.09
Boisar,19.80,72.75,32,9.70
Bokadvira,18.88,72.98,13,3.94
Bolthān,20.18,74.92,1896,574.55
Bombay,18.98,72.83,91,27.58
Bombay,18.93,72.83,0,0.00
Bombay,19.05,72.83,0,0.00
Bombay,18.97,72.83,108,32.73
Bombay,18.98,72.83,98,29.70
Bombay,18.91,72.81,108,32.73
Bombay,18.97,72.80,187,56.67
Bombay,19.05,72.87,36,10.91
Bombay,18.95,72.82,22,6.67
Bombay,19.03,72.85,32,9.70
Bombay,18.95,72.78,0,0.00
Bombay,19.48,72.90,42,12.73
Bombay,19.03,72.85,32,9.70
Bombay,18.97,72.84,0,0.00
Bombay,19.00,72.83,72,21.82
Bombay,19.08,72.83,39,11.82
Bombay,19.03,72.85,32,9.70
Bombay,19.00,72.85,0,0.00
Bombay,18.97,72.82,101,30.61
Bombay,19.10,72.83,39,11.82
Bombay,19.02,72.85,32,9.70
Bombay,19.02,72.82,32,9.70
Borad,21.63,74.33,492,149.09
Boradi,21.52,74.90,892,270.30
Borgaon,16.60,74.50,1781,539.70
Borgaon,18.63,75.97,2158,653.94
Borgaon,19.53,77.55,1325,401.52
Borgaon,20.98,78.57,1295,392.42
Borgaon,18.63,75.97,2158,653.94
Borgaon,20.72,77.15,984,298.18
Borgbar,17.82,73.42,600,181.82
Bori,18.87,72.92,3,0.91
Bori,19.50,76.73,1341,406.36
Bori,19.87,78.58,744,225.45
Bori,20.90,79.00,859,260.30
Bori,18.37,76.70,1899,575.45
Bori,19.12,74.10,2057,623.33
Bori,20.35,77.87,1102,333.94
Bori,21.31,76.96,2040,618.18
Bori-Budruk,19.12,74.10,2057,623.33
Boria,17.40,73.18,275,83.33
Boris,21.08,74.63,895,271.21
Borivli,19.23,72.85,36,10.91
Borkhedi,20.85,78.95,902,273.33
Borkund,20.70,74.83,1020,309.09
Borlai,18.50,72.92,45,13.64
Borlai,18.17,73.01,262,79.39
Borlai,18.17,73.01,262,79.39
Borlai-Panchatan,18.17,73.01,262,79.39
Borpada,21.13,73.93,718,217.58
Borshet,19.83,72.85,68,20.61
Borsheti,19.83,72.85,68,20.61
Borvihir,21.03,73.83,885,268.18
Bote,19.25,74.15,2404,728.48
Bowra,16.53,73.83,2139,648.18
Brahmanwada,19.33,74.03,2785,843.94
Brahmanwāde,19.33,74.03,2785,843.94
Brahmapuri,17.55,75.57,1469,445.15
Brahmapuri,20.60,79.87,711,215.45
Bramhapari,20.60,79.87,711,215.45
Bramhapuri,20.60,79.87,711,215.45
Brāhmangaon,20.55,74.30,1591,482.12
Brāhmanvel,21.15,74.22,1610,487.88
Budh,17.77,74.35,2837,859.70
Budhgaon,16.90,74.60,1814,549.70
Buldana,20.03,75.78,1988,602.42
Buldana,20.53,76.18,2096,635.15
Burdapur,18.63,76.50,2066,626.06
Burli,17.43,75.30,1778,538.79
Burrumpur,19.85,72.93,141,42.73
Burti,17.43,75.30,1778,538.79
Busegaon,17.72,74.33,2670,809.09
Bute,19.85,75.00,1594,483.03
Butram,21.70,77.25,1249,378.48
Byculla,18.97,72.83,108,32.73
Chakur,17.97,76.67,2020,612.12
Chakur,18.50,76.88,2040,618.18
Chamursi,19.93,79.88,600,181.82
Chanaje,18.86,72.95,29,8.79
Chandankhera,20.27,79.20,702,212.73
Chandas,20.18,76.87,1837,556.67
Chande,19.37,74.93,1702,515.76
Chandgad,15.93,74.20,2372,718.79
Chandi,19.37,74.93,1702,515.76
Chandol,20.33,76.00,1801,545.76
Chandoli,16.97,73.83,1948,590.30
Chandrapur,19.95,79.30,620,187.88
Chandur,20.82,77.97,1092,330.91
Chandur,19.73,79.18,757,229.39
Chandur,21.24,77.75,1187,359.70
Chandvad,20.33,74.25,2814,852.73
Chandwar,20.33,74.25,2814,852.73
Chanera,18.40,73.03,288,87.27
Chanere,18.40,73.03,288,87.27
Chanpa,20.97,79.23,1017,308.18
Chanyi,20.47,76.77,1049,317.88
Chaoka,16.05,73.55,501,151.82
Chapadgaon,18.53,75.17,1827,553.64
Chapadgaon,19.35,75.37,1545,468.18
Charan,17.07,73.97,2135,646.97
Chargaon,21.40,79.28,1496,453.33
Chas,18.93,73.83,2093,634.24
Chas,19.03,74.65,2352,712.73
Chatari,19.47,77.80,1263,382.73
Chatori,18.92,76.88,1292,391.52
Chauk,18.90,73.23,131,39.70
Chauk-karjat,18.90,73.23,131,39.70
Chaurakund,21.61,77.11,1315,398.48
Chausāla,18.70,75.70,2194,664.85
Chehedi,19.93,73.87,1732,524.85
Chhadvel,21.22,74.25,1591,482.12
Chichgarh,20.88,80.38,1249,378.48
Chicholi,21.47,79.68,1003,303.94
Chichondi,19.00,74.92,2240,678.79
Chichondi,19.00,74.92,2240,678.79
Chichpalli,20.00,79.47,695,210.61
Chikal,18.90,75.98,2014,610.30
Chikalda,21.40,77.32,3520,1066.67
Chikaldongri,19.47,72.78,36,10.91
Chikalthana,19.85,75.40,1876,568.48
Chikalthān,19.85,75.40,1876,568.48
Chikalthān,20.20,75.20,2063,625.15
Chikhalgan,18.45,72.93,875,265.15
Chikhali,16.45,74.33,1781,539.70
Chikhli,16.45,74.33,1781,539.70
Chikhli,20.35,76.25,1955,592.42
Chikhli,20.03,75.78,1988,602.42
Chikhli,20.57,78.00,980,296.97
Chikhli,21.00,76.15,770,233.33
Chikli,19.52,78.25,1138,344.85
Chimthāna,21.18,74.68,695,210.61
Chimur,20.50,79.38,738,223.64
Chinchani,19.87,72.70,29,8.79
Chinchavli,18.97,73.33,147,44.55
Chinchiwad,18.62,73.78,1909,578.48
Chinchner,17.65,74.10,2132,646.06
Chinchni,19.87,72.70,29,8.79
Chincholi,18.85,77.27,1210,366.67
Chinchpokli,18.98,72.83,98,29.70
Chinchrad,18.62,73.78,1909,578.48
Chinchvad,18.62,73.78,1909,578.48
Chinchwad,18.62,73.78,1909,578.48
Chiplun,17.53,73.52,22,6.67
Chispur,18.53,75.40,1830,554.55
Chispur,18.53,75.40,1830,554.55
Chitegaon,19.73,75.48,1755,531.82
Chitepipalgaon,19.73,75.48,1755,531.82
Chopda,21.25,75.30,623,188.79
Chorondpada,18.72,72.90,216,65.45
Chota,19.62,80.30,711,215.45
Christpāda,18.53,72.92,488,147.88
Chukmpalli,19.60,80.32,692,209.70
Chuknitapilli,19.60,80.32,692,209.70
Chāhārdi,21.22,75.23,574,173.94
Chākan,18.75,73.85,2119,642.12
Chālisgaon,20.47,75.02,1128,341.82
Chānda,19.95,79.30,620,187.88
Chāndor,20.33,74.25,2814,852.73
Chāngatpuri,19.30,76.13,1312,397.58
Chāni,20.47,76.77,1049,317.88
Chāpāner,20.18,75.05,1994,604.24
Chārthāna,19.63,76.55,1496,453.33
Chātgaon,20.20,80.17,741,224.55
Colāba,18.91,72.81,108,32.73
Cooria,19.08,72.88,26,7.88
Corai,19.25,72.78,22,6.67
Cumbala,18.97,72.80,187,56.67
Cumballa,18.97,72.80,187,56.67
Dabhade,18.72,73.68,2050,621.21
Dabhadi,21.55,74.45,393,119.09
Dabhil,17.65,73.47,590,178.79
Dabhol,17.60,73.17,426,129.09
Daddi,16.07,74.43,2208,669.09
Dadi,16.07,74.43,2208,669.09
Dahanu,19.97,72.73,0,0.00
Dahigaon,19.73,75.18,1574,476.97
Dahigaon,19.50,75.18,1594,483.03
Dahihanda,20.88,77.13,862,261.21
Dahinada,20.88,77.13,862,261.21
Dahivad,21.35,74.93,564,170.91
Dahivadi,17.72,74.55,2322,703.64
Dahivel,21.07,74.17,1610,487.88
Dalvikharoshi,18.64,72.98,141,42.73
Danda,18.80,72.93,39,11.82
Dande,18.42,72.91,114,34.55
Dande,18.28,73.00,0,0.00
Dandepada,19.58,72.73,16,4.85
Dangshirvāde,20.92,74.02,1929,584.55
Daphlāpur,17.00,75.08,2093,634.24
Dapodi,18.57,73.82,1925,583.33
Dapur,19.75,74.07,2280,690.91
Darangaon,21.02,75.27,698,211.52
Darekasa,21.28,80.57,1154,349.70
Darphal,17.92,75.83,1683,510.00
Darwha,20.32,77.77,1164,352.73
Daryāpur,20.93,77.33,948,287.27
Dasgaon,18.08,73.35,36,10.91
Dativra,19.52,72.77,26,7.88
Dattāpur,20.77,78.17,931,282.12
Daulat,17.15,75.37,1965,595.45
Daulatabad,19.93,75.23,1965,595.45
Daund,18.47,74.60,1686,510.91
Davrapada,18.80,73.10,95,28.79
Davri,17.28,73.93,2847,862.73
Dawaniwada,21.50,80.05,935,283.33
Dawaniwāi,21.50,80.05,935,283.33
Dawaniwāra,21.50,80.05,935,283.33
Dawarwari,19.55,75.52,1532,464.24
Degaon,20.73,78.48,869,263.33
Deglur,18.55,77.60,1210,366.67
Dehithan,18.97,75.20,2152,652.12
Dehu,18.72,73.77,1948,590.30
Dengachi,19.90,73.13,853,258.48
Deodahiphal,18.97,76.27,1522,461.21
Deolali,19.47,74.62,1689,511.82
Deolapur,21.58,79.35,1906,577.58
Deolgaon,20.43,76.68,1138,344.85
Deoli,20.67,78.48,859,260.30
Deolāli,19.90,73.83,1784,540.61
Deolāli,19.95,73.83,1801,545.76
Deolāpār,21.58,79.35,1906,577.58
Deoni,18.25,77.10,1958,593.33
Deoni,18.25,77.10,1958,593.33
Deori,21.07,80.37,1118,338.79
Deosur,20.43,80.55,1256,380.61
Deothāna,19.08,76.73,1236,374.55
Desli,19.03,80.27,396,120.00
Desran,20.57,73.98,1998,605.45
Deulgaon,20.10,76.17,1706,516.97
Deulghat,20.52,76.12,2020,612.12
Devgabn,20.02,74.27,1683,510.00
Devgad,16.38,73.38,216,65.45
Devgaon,20.03,75.03,1696,513.94
Devgaon,20.02,74.27,1683,510.00
Devgarh,17.98,73.02,0,0.00
Devgarh,16.38,73.38,216,65.45
Devghar,17.98,73.02,0,0.00
Devla,16.97,73.58,600,181.82
Devla,20.45,74.18,1879,569.39
Devlali,19.47,74.62,1689,511.82
Devli,21.93,74.08,597,180.91
Devpur,19.88,74.15,1853,561.52
Devrukh,17.05,73.62,616,186.67
Deūlgaon,20.63,75.98,1289,390.61
Deūlgaon,20.02,76.03,1817,550.61
Dhadgaon,21.82,74.22,1151,348.79
Dhamak,20.60,77.95,964,292.12
Dhamatne,19.80,72.82,65,19.70
Dhamnad,17.60,73.60,216,65.45
Dhamni,17.62,74.65,2296,695.76
Dhandarphal,19.53,74.13,1840,557.58
Dhaner,21.08,74.07,1833,555.45
Dhaner,20.87,78.28,905,274.24
Dhanor,20.87,78.28,905,274.24
Dhanora,20.27,80.32,757,229.39
Dhanora,21.22,75.52,692,209.70
Dhanora,21.43,74.08,390,118.18
Dhanora,18.58,76.35,2027,614.24
Dhantoli,21.13,79.08,1000,303.03
Dhanāj,20.67,77.62,1082,327.88
Dhanāj,20.67,77.62,1082,327.88
Dhar,20.42,76.00,1906,577.58
Dharamtar,18.70,73.03,22,6.67
Dharangaon,21.02,75.27,698,211.52
Dharavi,19.05,72.87,36,10.91
Dharmpuri,17.95,74.68,1807,547.58
Dharmābād,18.90,77.85,1177,356.67
Dhasai,19.27,73.60,436,132.12
Dhawalpuri,19.17,74.52,2296,695.76
Dherankhar,18.74,72.97,32,9.70
Dhokaude,18.77,72.88,85,25.76
Dhond,18.47,74.60,1686,510.91
Dhondrai,19.30,75.67,1430,433.33
Dhor,19.32,75.10,1555,471.21
Dhorambe,20.33,74.07,2349,711.82
Dhoregaon,19.72,75.10,1551,470.00
Dhorkingaon,19.62,75.37,1561,473.03
Dhotre,19.87,74.60,1630,493.94
Dhotri,17.67,76.08,1673,506.97
Dhule,20.90,74.78,787,238.48
Dhulia,20.90,74.78,787,238.48
Dhulpimpri,20.82,75.23,866,262.42
Dhālgaon,17.12,74.98,2194,664.85
Dhāmangaon,20.67,76.02,1213,367.58
Dhāmnand,17.60,73.60,216,65.45
Dhāmni,20.38,77.45,1341,406.36
Dhāmni,19.67,77.20,1496,453.33
Dhāndharphal,19.53,74.13,1840,557.58
Dhānki,19.57,77.85,1282,388.48
Dhārūr,18.82,76.12,2424,734.55
Dhāyda,20.50,75.88,2011,609.39
Digharchi,17.53,74.92,1879,569.39
Dighave,20.90,74.22,1666,504.85
Dighi,18.26,72.97,0,0.00
Dighol,18.67,76.28,2112,640.00
Digholāmb,18.67,76.28,2112,640.00
Dighori,20.67,79.78,728,220.61
Dighori,21.12,79.22,895,271.21
Dighori,20.88,79.93,754,228.48
Dighori,21.12,79.22,895,271.21
Dighori,20.88,79.93,754,228.48
Dighuchi,17.53,74.92,1879,569.39
Diglur,18.55,77.60,1210,366.67
Digras,18.73,77.23,1558,472.12
Digras,19.67,77.08,1502,455.15
Digras,21.33,78.53,1269,384.55
Digras,20.12,77.72,1154,349.70
Digras,18.72,77.22,1653,500.91
Digras,21.33,78.53,1269,384.55
Digras,18.73,77.23,1558,472.12
Digvala,16.22,73.83,324,98.18
Digvol,18.67,76.28,2112,640.00
Dindori,20.20,73.83,2004,607.27
Dindrord,18.98,76.25,1479,448.18
Dindrūr,18.98,76.25,1479,448.18
Diva,19.13,72.98,3,0.91
Diva,19.18,73.03,42,12.73
Dive,19.18,73.03,42,12.73
Diveāgar,18.17,72.99,16,4.85
Dolasne,19.40,74.22,2614,792.12
Dolār,21.39,76.96,1515,459.09
Dombri,18.90,75.57,2276,689.70
Don,19.58,72.73,16,4.85
Dondaicha,21.33,74.57,498,150.91
Dondvāda,20.72,74.85,1007,305.15
Dongaon,20.18,76.72,1712,518.79
Dongargaon,21.20,80.37,1115,337.88
Dongarkharda,20.30,78.45,1151,348.79
Dongri,19.28,72.78,22,6.67
Donje,18.40,75.35,1663,503.94
Donovada,20.72,74.85,1007,305.15
Dubera,19.78,73.97,2335,707.58
Dubere,19.78,73.97,2335,707.58
Dudhabhawi,17.93,74.52,2030,615.15
Dudhani,17.37,76.37,1453,440.30
Dudhni,17.37,76.37,1453,440.30
Dukanvadi,16.05,73.92,498,150.91
Dumri,21.33,79.23,1112,336.97
Durgapur,20.00,79.30,669,202.73
Dusarbid,20.00,76.30,1643,497.88
Dusāna,21.15,74.43,1167,353.64
Dāb,21.70,74.03,2919,884.55
Dābha,19.63,79.63,554,167.88
Dābhādi,20.03,75.72,2040,618.18
Dālimb,17.87,76.48,1955,592.42
Dāpoli,17.77,73.18,574,173.94
Dāpuri,18.57,73.82,1925,583.33
Dāsave,18.40,73.50,2080,630.30
Dāsāla,19.42,76.35,1394,422.42
Dāvāle,18.61,72.93,39,11.82
Edalābād,21.05,76.05,754,228.48
Ekrukha,18.48,77.07,1814,549.70
Elgoor,19.53,80.08,623,188.79
Elgur,19.53,80.08,623,188.79
Ellichpur,21.26,77.51,1210,366.67
Ellora,20.02,75.17,1948,590.30
Erandol,20.92,75.33,744,225.45
Faizpur,21.17,75.85,741,224.55
Fatehabād,18.82,76.12,2424,734.55
Fatehpur,20.65,75.88,1049,317.88
Fatheabad,18.82,76.12,2424,734.55
Fathkhelda,20.22,76.40,1843,558.48
Funde,18.89,72.96,19,5.76
Gadhinglaj,16.23,74.35,2043,619.09
Galan,20.60,75.27,921,279.09
Galieborga,20.10,75.12,1840,557.58
Galleborgao,20.10,75.12,1840,557.58
Galna,20.77,74.53,1627,493.03
Gangākher,18.95,76.75,1253,379.70
Gangāpur,20.03,73.72,1896,574.55
Gangāpur,18.33,76.52,1876,568.48
Gangāpur,19.68,75.02,1571,476.06
Ganjoti,17.80,76.60,1876,568.48
Ganori,20.05,75.35,2198,666.06
Gargoti,16.32,74.13,1791,542.73
Garhchiroh,20.17,80.00,715,216.67
Garhchiroli,20.17,80.00,715,216.67
Gaundre,18.30,75.35,1735,525.76
Gauria,21.77,74.22,1515,459.09
Gavanchivadi,18.83,74.40,1847,559.70
Gevrai,19.27,75.75,1528,463.03
Gewardha,20.63,80.15,820,248.48
Ghakoli,19.95,76.68,1814,549.70
Ghan,19.52,75.98,1515,459.09
Ghanbi,17.43,73.83,3261,988.18
Ghanpur,19.83,79.75,531,160.91
Ghansangvi,19.52,75.98,1515,459.09
Ghansoli,19.12,72.98,3,0.91
Ghansoli,19.12,72.98,3,0.91
Ghatang,21.45,77.44,2588,784.24
Ghatanji,20.13,78.32,898,272.12
Ghatkopar,19.08,72.90,39,11.82
Gherdi,17.28,75.28,1843,558.48
Ghod,19.03,73.83,2322,703.64
Ghoda,19.03,73.83,2322,703.64
Ghodnadi,18.83,74.38,1840,557.58
Ghogari,19.30,77.65,1466,444.24
Ghogra,21.42,79.43,1000,303.03
Ghogri,19.30,77.65,1466,444.24
Ghorapdeo,18.97,72.83,108,32.73
Ghot,19.83,79.98,597,180.91
Ghotan,19.40,75.28,1541,466.97
Ghotaori,18.98,73.63,2575,780.30
Ghotavde,18.59,72.96,72,21.82
Ghoti,19.72,73.63,1902,576.36
Ghoti,19.72,73.63,1902,576.36
Ghunaki,16.88,74.28,1801,545.76
Ghunki,16.88,74.28,1801,545.76
Ghāgardarāwāri,18.77,77.20,1476,447.27
Ghārgaon,19.32,74.18,2007,608.18
Ghārāpuri,18.96,72.93,0,0.00
Ghātgarh,19.53,73.65,1873,567.58
Ghātghar,19.28,73.70,2437,738.48
Ghātkar,16.05,74.08,2477,750.61
Ghātnāndra,20.45,75.42,2116,641.21
Ghūgus,19.93,79.13,620,187.88
Gimvi,17.50,73.28,544,164.85
Girar,20.67,79.13,846,256.36
Giravali,19.08,73.85,2306,698.79
Girawali,19.08,73.85,2306,698.79
Girgaon,18.95,72.82,22,6.67
Girgaum,18.95,72.82,22,6.67
Girnāre,20.07,73.67,2027,614.24
Gobarwāhi,21.53,79.72,1020,309.09
Godhegaon,19.35,74.90,1738,526.67
Godri,18.32,76.63,1919,581.52
Goladgaon,19.83,75.60,1788,541.82
Golatgaon,19.83,75.60,1788,541.82
Golegaon,20.43,75.70,2250,681.82
Golepangri,19.72,75.85,1492,452.12
Gond,21.03,80.08,761,230.61
Gondia,21.45,80.20,1000,303.03
Goomree,19.97,80.27,954,289.09
Gorah,19.65,73.02,98,29.70
Gorai,19.25,72.78,22,6.67
Goraigaon,19.92,77.05,1587,480.91
Goregaon,19.92,77.05,1587,480.91
Goregaon,18.17,73.30,91,27.58
Goregaon,21.37,80.22,1053,319.09
Goreghat,21.57,79.57,1118,338.79
Gorhe,19.65,73.02,98,29.70
Gorthan,20.03,73.50,2352,712.73
Gosaiwadi,17.93,76.03,1820,551.52
Goshing,20.70,76.32,1056,320.00
Gothna,17.10,73.77,2936,889.70
Govane,19.90,72.80,62,18.79
Grai,19.25,72.78,22,6.67
Guguldoho,21.42,79.43,1000,303.03
Guhagar,17.47,73.20,331,100.30
Gulkhat,18.18,76.37,2076,629.09
Gurbhela,20.42,80.55,1456,441.21
Gurgaon,19.33,77.28,1249,378.48
Gutta,19.70,80.07,944,286.06
Gārgoli,16.32,74.13,1791,542.73
Gātegaon,18.43,76.40,2060,624.24
Gūmri,19.97,80.27,954,289.09
Hadgaon,19.50,77.67,1358,411.52
Hadgaon,19.32,76.33,1318,399.39
Haldi,16.60,74.15,1768,535.76
Halgar,18.10,76.88,1879,569.39
Halgira,18.10,76.88,1879,569.39
Haliwara,19.75,80.33,823,249.39
Halkarni,16.17,74.47,2162,655.15
Hanegaon,18.33,77.45,1676,507.88
Hanigaon,18.33,77.45,1676,507.88
Hanmant,17.30,74.43,2066,626.06
Hannur,17.67,76.18,1538,466.06
Harangul,18.90,76.67,1440,436.36
Haripur,16.83,74.53,1784,540.61
Harisal,21.54,77.11,1240,375.76
Harnai,17.80,73.10,13,3.94
Harsui,20.18,77.67,1131,342.73
Harsul,20.12,73.45,1227,371.82
Harsul,20.18,77.67,1131,342.73
Hathkumbe,17.00,73.42,554,167.88
Hatkalangda,16.73,74.42,1866,565.45
Hatkamba,17.00,73.42,554,167.88
Hatkanagale,16.73,74.42,1866,565.45
Hatkhambe,17.00,73.42,554,167.88
Hatnur,20.17,75.13,1922,582.42
Hatru,21.68,77.34,1715,519.70
Hatta,19.33,76.95,1276,386.67
Hattur,17.55,75.90,1430,433.33
Helvak,17.37,73.73,2040,618.18
Helwāk,17.37,73.73,2040,618.18
Her,18.42,76.97,2050,621.21
Her,18.42,76.97,2050,621.21
Herni,17.80,73.10,13,3.94
Hewra,17.70,74.42,2595,786.36
Hewro,17.70,74.42,2595,786.36
Hinganghat,20.57,78.83,705,213.64
Hingni,20.92,78.72,954,289.09
Hingoli,19.72,77.15,1499,454.24
Hingona,21.20,75.78,800,242.42
Hisala,21.27,75.10,583,176.67
Hivra,17.22,74.78,2618,793.33
Hivre,18.92,74.72,2273,688.79
Hiwarkhed,21.13,76.86,1056,320.00
Hol,21.23,75.05,508,153.94
Horti,17.88,76.30,2004,607.27
Hotgi,17.58,75.98,1476,447.27
Howas,18.77,72.87,62,18.79
Hulijanli,17.35,75.57,1561,473.03
Huljanti,17.35,75.57,1561,473.03
Humbarna,17.25,73.80,3461,1048.79
Hādgaon,19.32,76.33,1318,399.39
Hādākhed,21.42,74.97,688,208.48
Hānker,20.10,80.58,1167,353.64
Hāsnābād,20.13,75.70,1893,573.64
Hāt,20.90,80.57,1243,376.67
Hātgarh,20.53,73.75,2716,823.03
Hātron,20.83,76.88,826,250.30
Hātrūn,20.83,76.88,826,250.30
Ichalkaranji,16.70,74.47,1768,535.76
Igatpuri,19.70,73.55,1922,582.42
Indapuri,18.30,73.25,68,20.61
Indva,21.23,74.45,872,264.24
Indāpur,18.30,73.25,68,20.61
Indāpur,18.12,75.03,1728,523.64
Isab,18.63,76.12,2122,643.03
Isgaon,19.95,74.48,1683,510.00
Islahpur,19.42,78.02,1295,392.42
Islampur,17.05,74.27,1883,570.61
Itkūr,18.55,75.92,2267,686.97
Itwāri,21.15,79.13,984,298.18
Jadhala,18.65,76.80,1824,552.73
Jadho,17.83,74.53,2601,788.18
Jafarabad,20.20,76.00,1738,526.67
Jahri,19.42,76.78,1282,388.48
Jaigaon,21.05,76.53,958,290.30
Jaigarh,17.28,73.22,213,64.55
Jaikhedan,20.78,74.20,2030,615.15
Jaikhera,20.27,73.67,2257,683.94
Jainbavda,16.17,73.87,935,283.33
Jaipur,19.88,76.78,1735,525.76
Jaisingpur,16.80,74.57,1761,533.64
Jaitāpur,16.62,73.35,32,9.70
Jalam,20.82,76.58,843,255.45
Jalgaon,18.65,75.10,1830,554.55
Jalgaon,21.05,76.53,958,290.30
Jalgaon,20.40,74.48,1630,493.94
Jalgaon,17.75,73.18,603,182.73
Jalgaon,21.02,75.57,688,208.48
Jalkot,18.63,77.20,1702,515.76
Jalkote,18.63,77.20,1702,515.76
Jalod,21.17,75.15,479,145.15
Jalālkhera,21.38,78.42,1213,367.58
Jam,21.40,79.57,964,292.12
Jamb,20.62,78.93,787,238.48
Jambhulpada,18.65,73.28,141,42.73
Jamgaon,17.57,75.70,1591,482.12
Jamgaon,19.07,74.52,2490,754.55
Jamkhed,19.63,75.65,1643,497.88
Jamkhed,18.67,75.18,1807,547.58
Jamkhed,18.72,75.32,1935,586.36
Jamner,20.82,75.78,846,256.36
Jangatvadi,16.97,73.58,600,181.82
Janjira,18.33,72.97,13,3.94
Janwal,18.55,76.75,2007,608.18
Janwe,20.98,74.98,698,211.52
Jaola,19.47,76.98,1312,397.58
Jaola,19.82,77.40,1509,457.27
Jaola,18.50,76.38,2043,619.09
Jaola,18.50,76.38,2043,619.09
Jaoli,17.90,76.40,2020,612.12
Jath,17.05,75.22,2208,669.09
Jaulka,20.30,77.07,1568,475.15
Javal,20.15,77.95,1053,319.09
Jawal,20.15,77.95,1053,319.09
Jawhār,19.92,73.23,1466,444.24
Jayasingpar,16.80,74.57,1761,533.64
Jaygad,17.28,73.22,213,64.55
Jaynagar,21.48,74.60,479,145.15
Jaysingpur,16.80,74.57,1761,533.64
Jaytapur,16.62,73.35,32,9.70
Jejuri,18.28,74.17,2355,713.64
Jeur,19.20,74.80,2395,725.76
Jeur,18.28,75.17,1755,531.82
Jhalambi,21.18,73.92,643,194.85
Jhodga,20.67,74.68,1341,406.36
Jhodge,20.67,74.68,1341,406.36
Jhārāpāpra,20.08,80.50,1010,306.06
Jhīra,21.29,77.14,2503,758.48
Jigthān,19.77,75.13,1578,478.18
Jinti,18.32,74.88,1804,546.67
Jintūr,19.62,76.70,1492,452.12
Jodmoha,20.32,78.32,1295,392.42
Jogeshwari,19.82,75.20,1633,494.85
Josranjan,18.33,72.99,246,74.55
Jowla,18.53,75.27,1725,522.73
Juhu,19.10,72.82,0,0.00
Junnar,19.20,73.88,2260,684.85
Junoni,17.25,75.00,1820,551.52
Juptarai,20.33,80.33,800,242.42
Jālgaon,18.23,74.47,1886,571.52
Jālna,19.83,75.88,1604,486.06
Jāmbulghāta,20.55,79.47,764,231.52
Jāmda,20.57,74.98,964,292.12
Jāmgaon,17.55,75.68,1535,465.15
Jāmgaon,17.55,75.68,1535,465.15
Jāmod,21.11,76.61,1115,337.88
Jāmti,20.82,75.97,1013,306.97
Jānephal,20.30,76.57,1778,538.79
Jārvar,19.85,73.50,2014,610.30
Jārvar,19.85,73.50,2014,610.30
Kachurwahi,21.33,79.38,967,293.03
Kada,18.90,75.10,1961,594.24
Kadakvadi,19.28,74.37,2188,663.03
Kadegaon,17.30,74.35,2204,667.88
Kadirabad,19.85,75.90,1610,487.88
Kadus,18.88,73.82,2148,650.91
Kagwad,16.68,74.73,1873,567.58
Kahal,18.97,77.45,1174,355.76
Kahdaibari,21.12,74.13,1929,584.55
Kahim,18.72,72.87,62,18.79
Kahoj,19.22,73.18,75,22.73
Kaij,18.70,76.08,2185,662.12
Kajgaon,20.57,75.15,951,288.18
Kakmari,16.88,75.30,2181,660.91
Kalaj,18.00,74.32,1942,588.48
Kalam,20.45,78.33,928,281.21
Kalam,18.58,76.03,2080,630.30
Kalamb,20.45,78.33,928,281.21
Kalamb,19.05,73.95,2060,624.24
Kalamboli,19.03,73.10,49,14.85
Kalamnuri,19.67,77.33,1574,476.97
Kalas,18.17,74.80,1856,562.42
Kalba,18.93,72.82,49,14.85
Kalchaundi,17.50,74.75,2303,697.88
Kale,16.72,74.03,1820,551.52
Kaledhon,17.43,74.65,2513,761.52
Kalegaon,18.70,75.97,2214,670.91
Kalgaon,19.80,77.17,1581,479.09
Kalgaon,20.03,77.83,1148,347.88
Kali,19.95,77.75,1174,355.76
Kallam,18.58,76.03,2080,630.30
Kallia,16.72,74.03,1820,551.52
Kalmeshwar,21.23,78.90,1085,328.79
Kaloli,17.43,73.95,2611,791.21
Kalva,19.20,72.98,3,0.91
Kalvān,20.50,74.02,1948,590.30
Kalwa,19.20,72.98,3,0.91
Kalyan,19.25,73.15,45,13.64
Kaman,19.35,72.90,45,13.64
Kamargaon,20.62,77.50,1118,338.79
Kamari,19.40,77.75,1348,408.48
Kameri,17.00,74.27,1925,583.33
Kampa,20.67,79.58,866,262.42
Kamptee,21.23,79.20,885,268.18
Kamthikheri,21.47,79.17,1148,347.88
Kamtikhairi,21.47,79.17,1148,347.88
Kamvadi,18.43,75.27,1719,520.91
Kanasi,20.53,73.90,2165,656.06
Kanchad,19.68,73.02,118,35.76
Kandahar,18.87,77.20,1210,366.67
Kandar,18.12,75.20,1676,507.88
Kandar,19.47,80.37,669,202.73
Kandivli,17.87,73.23,711,215.45
Kandree,19.98,80.43,1020,309.09
Kandri,19.98,80.43,1020,309.09
Kandri,21.42,79.27,1666,504.85
Kanera,17.72,73.92,2473,749.39
Kaneri,20.73,80.13,830,251.52
Kanhargaon,19.95,77.15,1492,452.12
Kanheri,18.05,73.92,2601,788.18
Kankauli,16.27,73.70,147,44.55
Kankavli,16.27,73.70,147,44.55
Kannad,20.27,75.13,2076,629.09
Kanoli,16.55,73.95,2171,657.88
Kansivni,20.62,77.20,1056,320.00
Kanur,18.77,77.57,1295,392.42
Kapadna,21.03,74.80,793,240.30
Kapshi,17.33,74.32,2234,676.97
Kapūrwāhāl,18.22,73.92,2037,617.27
Karadga,16.57,74.45,1748,529.70
Karadge,16.57,74.45,1748,529.70
Karadkhel,18.48,77.50,1351,409.39
Karadoho,19.97,72.78,19,5.76
Karajgi,17.12,75.58,1669,505.76
Karajgi,17.45,76.03,1453,440.30
Karajkhar,18.05,76.27,2047,620.30
Karambavna,17.57,73.42,446,135.15
Karambavne,17.57,73.42,446,135.15
Karania,18.85,72.95,0,0.00
Karanja,18.88,72.92,42,12.73
Karanja,21.18,78.40,1469,445.15
Karanja,20.48,77.48,1387,420.30
Karanjali,20.40,73.73,2283,691.82
Karanjali,21.32,74.00,482,146.06
Karanji,20.13,78.62,941,285.15
Karanji,19.13,74.98,1994,604.24
Karanjphan,16.78,73.90,1965,595.45
Karasgaon,21.32,77.61,1272,385.45
Karde,18.73,74.35,2014,610.30
Kargani,17.32,74.88,1981,600.30
Karhati,18.25,74.42,1925,583.33
Karjat,18.92,73.33,213,64.55
Karjat,19.70,75.73,1597,483.94
Karjat,18.55,75.00,1948,590.30
Karkam,17.85,75.30,1643,497.88
Karkamb,17.85,75.30,1643,497.88
Karkheli,18.95,77.75,1217,368.79
Karkheli,18.35,77.03,2086,632.12
Karle,18.15,73.00,183,55.45
Karli,21.35,74.42,679,205.76
Karli,18.75,73.48,2043,619.09
Karmad,19.87,75.55,1971,597.27
Karmoda,21.11,76.64,1095,331.82
Karmulli,18.02,74.78,1650,500.00
Karmāla,18.42,75.20,1843,558.48
Karnala,18.87,73.10,131,39.70
Karonjali,20.40,73.73,2283,691.82
Karva,17.20,74.55,2125,643.94
Karwapa,20.12,80.17,725,219.70
Karād,17.28,74.20,1856,562.42
Kas,17.70,73.83,3687,1117.27
Kasa,19.90,72.93,91,27.58
Kasa,19.90,72.93,91,27.58
Kasal,16.15,73.68,246,74.55
Kasar,17.92,76.75,2139,648.18
Kasare,20.93,74.27,1489,451.21
Kasba,16.15,74.05,1961,594.24
Kasba,16.07,74.33,2391,724.55
Kasba,16.22,74.43,2050,621.21
Kasba,16.92,74.03,1856,562.42
Kasba,16.47,74.03,1758,532.73
Kashedi,17.88,73.42,597,180.91
Kasid,18.44,72.91,187,56.67
Kasāra,19.63,73.48,918,278.18
Kasārjaola,18.50,76.38,2043,619.09
Katala,19.72,76.27,1532,464.24
Kathi,21.78,74.05,1765,534.85
Katol,21.27,78.58,1368,414.55
Katoor,18.90,77.58,1194,361.82
Katphal,18.25,74.63,1893,573.64
Katrab,19.17,73.23,121,36.67
Katrāl,17.17,75.63,1666,504.85
Katur,18.90,77.58,1194,361.82
Kaudagon,19.10,74.92,2700,818.18
Kaudgaon,19.10,74.92,2700,818.18
Kaumloli,19.67,72.87,39,11.82
Kaundanpur,20.98,78.15,967,293.03
Kautha,20.73,78.40,912,276.36
Kauthe,18.88,74.17,2083,631.21
Kaviapur,16.93,74.63,1866,565.45
Kavlapur,16.93,74.63,1866,565.45
Kavtha,20.73,78.40,912,276.36
Kavtha,17.07,74.95,2194,664.85
Kavāde,18.78,72.94,334,101.21
Kawalguda,18.90,77.67,1092,330.91
Kawta,18.80,77.38,1200,363.64
Kayar,19.90,78.90,715,216.67
Kedgaon,18.47,74.37,1866,565.45
Kelghar,17.85,73.77,2654,804.24
Kelshi,17.92,73.06,111,33.64
Kelsi,17.92,73.06,111,33.64
Kelva,19.65,72.73,6,1.82
Kelve,19.65,72.73,6,1.82
Kelve-Mahim,19.65,72.73,6,1.82
Kelzar,19.97,79.58,623,188.79
Kem,18.17,75.28,1850,560.61
Kenjala,17.80,73.57,1190,360.61
Ker,18.98,76.90,1217,368.79
Ketur,18.27,74.95,1620,490.91
Ketura,19.05,75.62,1627,493.03
Kewalrām,21.40,78.73,1256,380.61
Khadakvaslal,18.43,73.77,2020,612.12
Khadakwasla,18.43,73.77,2020,612.12
Khadaoli,19.37,73.23,104,31.52
Khadki,18.57,73.87,1925,583.33
Khadki,21.23,74.03,695,210.61
Khajpur,20.08,75.12,1840,557.58
Khakurdi,20.68,74.42,1587,480.91
Khakurla,16.62,73.90,1929,584.55
Khalapur,18.82,73.27,439,133.03
Khallār,21.04,77.46,1092,330.91
Khambale,21.45,75.07,954,289.09
Khamloli,19.67,72.87,39,11.82
Khamshet,18.75,73.55,2201,666.97
Khamswadi,18.45,76.05,2188,663.03
Khamtalai,21.42,79.92,869,263.33
Khanapur,19.85,77.35,1384,419.39
Khandakwalsa,18.43,73.77,2020,612.12
Khandala,18.75,73.38,2204,667.88
Khandala,20.02,74.80,1820,551.52
Khandala,19.90,77.45,1637,496.06
Khandala,18.05,74.02,2188,663.03
Khandala,18.05,74.02,2188,663.03
Khandala,21.33,79.38,967,293.03
Khandale,18.67,72.91,137,41.52
Khandola,20.02,74.80,1820,551.52
Khandāla,21.33,79.42,948,287.27
Khangaon,20.50,78.62,787,238.48
Khanivde,19.48,72.92,26,7.88
Khar,20.98,77.63,1036,313.94
Kharakvasla,18.43,73.77,2020,612.12
Kharavli,18.90,72.92,285,86.36
Kharda,18.63,75.48,2060,624.24
Khardi,19.58,73.38,734,222.42
Khardi,17.58,75.28,1630,493.94
Khardipāda,19.52,72.77,26,7.88
Kharepatan,16.55,73.62,331,100.30
Kharka,18.48,77.38,1302,394.55
Kharkhand,18.89,72.91,3,0.91
Kharki,17.97,74.32,2034,616.36
Kharola,18.50,76.67,1955,592.42
Kharpada,18.78,73.08,36,10.91
Kharsingi,20.52,79.27,849,257.27
Kharsumdi,17.35,74.77,2329,705.76
Kharsundi,17.35,74.77,2329,705.76
Kharwandi,19.17,75.37,1863,564.55
Khatao,17.67,74.37,2549,772.42
Khatora,20.28,79.33,800,242.42
Khed,17.72,73.38,82,24.85
Khed,18.37,74.82,1666,504.85
Khed,18.33,73.83,2417,732.42
Khed,18.87,73.90,2063,625.15
Khede,20.90,74.65,951,288.18
Khednagar,18.37,74.82,1666,504.85
Khel,20.93,76.90,816,247.27
Khervādi,20.05,73.97,1768,535.76
Kherwadi,20.05,73.97,1768,535.76
Khetia,21.67,74.58,646,195.76
Khetwadi,18.95,72.82,22,6.67
Khidkikhār,18.74,72.92,997,302.12
Khodāla,19.78,73.40,1377,417.27
Khokarmoho,18.98,75.57,1886,571.52
Kholāpur,20.95,77.52,971,294.24
Khopoli,18.78,73.33,452,136.97
Khospuri,19.27,74.85,1945,589.39
Khujare,18.12,73.00,485,146.97
Khuldābād,20.05,75.18,2811,851.82
Khākar,19.87,76.80,1702,515.76
Khāmaswāri,18.45,76.05,2188,663.03
Khāmgaon,20.68,76.57,1059,320.91
Khāmla,21.51,77.52,3238,981.21
Khānāpur,17.27,74.72,2680,812.12
Khānāpur,18.60,77.57,1302,394.55
Khāpa,20.92,78.95,898,272.12
Khāparkhera,21.28,79.45,908,275.15
Khāpri,21.05,79.03,1000,303.03
Khār,19.07,72.83,39,11.82
Khārangna,20.93,78.48,977,296.06
Khāt,21.25,79.53,889,269.39
Kodoli,16.88,74.20,1797,544.55
Kohdaibāri,21.12,74.13,1929,584.55
Kokarjaola,19.20,76.50,1338,405.45
Koke,19.47,76.75,1348,408.48
Kokesra,16.43,73.73,337,102.12
Kokisra,16.43,73.73,337,102.12
Kokori,20.88,80.53,1328,402.42
Kolambi,20.25,78.17,1033,313.03
Kolara,20.42,79.37,754,228.48
Kolgaon,19.85,74.35,1699,514.85
Kolgaon,18.79,72.87,82,24.85
Kolgaon,20.65,75.10,974,295.15
Kolgaon,18.78,74.67,2129,645.15
Kolghar,19.75,75.60,1646,498.79
Kolgiri,17.10,75.33,2224,673.94
Kolhapur,16.70,74.22,1788,541.82
Kolhar,19.52,74.53,1679,508.79
Kolhār,19.52,74.53,1679,508.79
Kolsa,20.15,79.50,780,236.36
Kolshet,19.23,72.98,32,9.70
Kolvan,18.58,73.53,2007,608.18
Kolwan,18.58,73.53,2007,608.18
Kolād,18.40,73.20,695,210.61
Kondalwādi,18.80,77.77,1151,348.79
Kondhāli,21.15,78.62,1571,476.06
Kondi,17.73,75.82,1555,471.21
Kondivli,18.10,72.99,16,4.85
Kondya,16.58,73.57,436,132.12
Kongnoli,16.55,74.33,1738,526.67
Kongnolli,16.55,74.33,1738,526.67
Konjale,17.80,73.57,1190,360.61
Konoli,16.55,73.95,2171,657.88
Kont,16.85,73.47,675,204.55
Konvali,16.30,73.97,2155,653.03
Kopar,18.71,72.96,104,31.52
Kopargaon,19.88,74.48,1617,490.00
Koparli,21.43,74.43,406,123.03
Koparpāda,19.03,73.08,3,0.91
Kopela,18.83,80.23,419,126.97
Kopra,19.50,78.13,1141,345.76
Kora,19.53,72.73,29,8.79
Kora,19.55,72.70,0,0.00
Kora,20.50,79.12,741,224.55
Koradgaon,19.23,75.30,1620,490.91
Koradi,21.25,79.10,977,296.06
Koradih,21.25,79.10,977,296.06
Korandh,19.42,77.23,1315,398.48
Korat,19.63,78.05,1043,316.06
Koregaon,18.65,74.08,1817,550.61
Koregaon,17.72,74.17,2194,664.85
Koregaon-Bhima,18.65,74.08,1817,550.61
Korlai,18.52,72.90,0,0.00
Korti,18.40,75.03,1876,568.48
Kosarsār,20.45,79.02,705,213.64
Kosdani,19.92,77.93,898,272.12
Kosemba,20.35,73.77,2198,666.06
Kotalgi,16.95,75.30,2201,666.97
Kotgal,20.57,80.55,1322,400.61
Kothal,19.45,76.13,1601,485.15
Kothala,19.35,76.55,1312,397.58
Kothi,19.55,80.62,692,209.70
Kothulna,21.42,79.02,1158,350.91
Kothāri,19.78,79.50,564,170.91
Kothāri,19.58,78.20,1036,313.94
Kottalgi,16.95,75.30,2201,666.97
Kotu,19.43,73.97,2335,707.58
Kotul,19.43,73.97,2335,707.58
Kourah,19.53,72.73,29,8.79
Koynanagar,17.40,73.77,2450,742.42
Krishnur,18.93,77.48,1302,394.55
Ku,19.47,76.75,1348,408.48
Kuchi,17.07,74.87,2175,659.09
Kuda,18.28,73.08,190,57.58
Kudan,19.78,73.08,137,41.52
Kudgaon,18.24,72.97,16,4.85
Kudāl,16.03,73.68,65,19.70
Kudāl,17.83,73.92,2273,688.79
Kuher,21.05,74.02,2050,621.21
Kukadgaon,18.48,75.47,1833,555.45
Kuktoli,16.93,74.85,2165,656.06
Kukāna,19.43,75.08,1568,475.15
Kuldharan,18.53,74.87,1889,572.42
Kumbala,18.97,72.80,187,56.67
Kumbhari,17.10,75.10,2103,637.27
Kumbhoj,16.83,74.43,1814,549.70
Kumta,17.72,74.18,2250,681.82
Kumtha,17.72,74.18,2250,681.82
Kundalgao,20.32,74.45,1866,565.45
Kundalgaon,20.32,74.45,1866,565.45
Kupat,20.32,77.55,1515,459.09
Kuram,20.77,77.57,1036,313.94
Kurandvād,16.68,74.58,1722,521.82
Kurankhed,20.70,77.25,967,293.03
Kurduvadi,18.08,75.43,1646,498.79
Kurha,20.97,75.78,816,247.27
Kurha,20.97,78.08,1043,316.06
Kurha,20.98,76.30,800,242.42
Kurhād,20.13,78.18,908,275.15
Kurhād,20.68,75.47,889,269.39
Kurkheda,20.62,80.20,790,239.39
Kurkhera,20.62,80.20,790,239.39
Kurla,19.08,72.88,26,7.88
Kurla,18.75,77.13,1696,513.94
Kurul,17.67,75.67,1627,493.03
Kusi,17.55,73.88,2257,683.94
Kusiamb,18.28,75.78,1830,554.55
Kuslamb,18.28,75.78,1830,554.55
Kusumba,20.92,74.65,912,276.36
Kusumbe,20.92,74.65,912,276.36
Kāgal,16.58,74.32,1814,549.70
Kāgvād,16.68,74.73,1873,567.58
Kākri,19.07,77.37,1227,371.82
Kāla,17.20,74.17,1850,560.61
Kālegaon,18.70,75.97,2214,670.91
Kālundri,18.98,73.13,36,10.91
Kāmtha,21.23,79.20,885,268.18
Kāmtha,21.52,80.30,984,298.18
Kāmthi,21.23,79.20,885,268.18
Kānadi,19.83,76.47,1620,490.91
Kāngaon,20.00,74.13,1742,527.88
Kānha,19.85,77.68,948,287.27
Kānhur,19.10,74.38,2791,845.76
Kānpa,20.67,79.58,866,262.42
Kāp,19.92,78.17,810,245.45
Kāpsi,19.00,77.38,1174,355.76
Kāpsi,17.33,74.32,2234,676.97
Kāramba,17.77,75.87,1597,483.94
Kāranj,21.18,78.40,1469,445.15
Kāranja,20.48,77.48,1387,420.30
Kārdha,21.15,79.65,780,236.36
Kāregaon,19.57,75.20,1446,438.18
Kāregaon,19.57,74.75,1660,503.03
Kāri,18.23,75.92,1833,555.45
Kāri,18.95,76.17,1624,492.12
Kārla,18.75,73.48,2043,619.09
Kāsarda,16.43,73.68,354,107.27
Kāsarhalli,18.67,77.68,1112,336.97
Kāsegaon,17.13,74.18,1837,556.67
Kāshti,18.55,74.58,1702,515.76
Kāsoda,20.82,75.30,853,258.48
Kāsāri,20.25,74.75,1719,520.91
Kāti,17.97,75.90,1673,506.97
Kātkūmbh,21.57,77.55,2795,846.97
Lachyan,17.28,74.97,1886,571.52
Lad,19.97,75.62,1840,557.58
Lahori,18.77,76.03,2368,717.58
Lakda,17.18,75.42,1853,561.52
Lakhmapur,20.55,74.35,1535,465.15
Lakhpuri,20.83,77.37,941,285.15
Lakhāndūr,20.73,79.85,708,214.55
Laling,20.82,74.73,1446,438.18
Lamaj,17.75,73.65,2155,653.03
Lamkane,19.13,77.67,1427,432.42
Langarpeth,17.07,74.95,2194,664.85
Lanja,16.85,73.55,544,164.85
Laohāla,20.27,76.42,1886,571.52
Lasalgaon,20.15,74.23,1906,577.58
Lassur,19.95,74.98,1663,503.94
Lasur,21.30,75.20,741,224.55
Lasur,19.95,74.98,1663,503.94
Lasurna,18.08,74.77,1755,531.82
Latur,18.40,76.58,2070,627.27
Laul,18.03,75.33,1758,532.73
Lavangi,17.05,75.63,1830,554.55
Lavori,18.77,76.03,2368,717.58
Lawha,18.93,77.13,1305,395.45
Ledva,17.42,75.30,1791,542.73
Limba,18.80,75.65,2388,723.64
Limbgaon,19.18,77.22,1200,363.64
Lingi,19.67,76.88,1420,430.30
Lohara,20.40,78.10,1489,451.21
Lohara,20.72,75.55,990,300.00
Lohara,17.98,76.33,2070,627.27
Lohara,21.27,75.92,977,296.06
Lohdongri,21.32,79.35,961,291.21
Lohgaon,18.80,77.58,1161,351.82
Lohi,20.43,77.67,1276,386.67
Lohogaon,18.60,73.92,1994,604.24
Lonand,18.03,74.18,1968,596.36
Lonar,19.98,76.53,1847,559.70
Lonauli,18.75,73.42,2047,620.30
Lonavala,18.75,73.42,2047,620.30
Lonavale,18.75,73.42,2047,620.30
Lonavla,18.75,73.42,2047,620.30
Longaon,20.05,75.90,1938,587.27
Longhar,18.72,72.95,52,15.76
Loni,20.15,74.83,1876,568.48
Loni,18.20,74.93,1814,549.70
Loni,20.78,77.67,1154,349.70
Loni,18.40,77.47,1512,458.18
Loni,19.58,74.48,1748,529.70
Loni,18.95,74.87,2112,640.00
Loni,18.23,74.40,1925,583.33
Loni,19.58,74.47,1758,532.73
Loni,18.45,74.03,2060,624.24
Loni,18.62,74.03,1909,578.48
Loni,19.58,74.47,1758,532.73
Loni,18.45,74.03,2060,624.24
Loni,18.67,74.60,1830,554.55
Loni,18.67,74.60,1830,554.55
Loni,18.95,74.87,2112,640.00
Lonsvala,18.75,73.42,2047,620.30
Lugam,19.57,79.90,498,150.91
Lādkhed,20.35,77.90,1151,348.79
Lādsāwangi,19.97,75.62,1840,557.58
Lākh,19.50,74.68,1607,486.97
Lākhanwāda,20.48,76.62,1243,376.67
Lākhni,21.07,79.82,882,267.27
Lāmbkani,21.08,74.57,1010,306.06
Lāmjan,18.13,76.58,1994,604.24
Lāndgāwāri,18.85,77.03,1597,483.94
Lāsina,19.18,77.03,1246,377.58
Lāsurne,18.08,74.77,1755,531.82
Lāthi,19.57,79.50,505,153.03
Madakhed,20.98,76.58,820,248.48
Madana,21.58,74.63,666,201.82
Madh,19.32,73.83,2332,706.67
Madh,19.15,72.83,39,11.82
Madhakhed-Bujruk,20.98,76.58,820,248.48
Madheri,20.30,78.83,721,218.48
Mahabaleshvar,17.92,73.67,4438,1344.85
Mahad,18.08,73.42,85,25.76
Mahalakshmi,18.98,72.80,0,0.00
Mahalaxmi,18.98,72.80,0,0.00
Mahaluxmi,18.98,72.80,0,0.00
Mahar,17.07,74.02,2047,620.30
Maharkhed,20.52,76.50,1525,462.12
Mahboobganj,18.98,75.77,1614,489.09
Mahbubganj,18.98,75.77,1614,489.09
Mahdal,18.45,76.75,2007,608.18
Mahikavati,19.03,72.85,32,9.70
Mahirāvani,19.97,73.65,2230,675.76
Mahurjhari,21.23,79.02,1023,310.00
Mahābaleshwar,17.92,73.67,4438,1344.85
Mahāgaon,16.15,74.33,2089,633.03
Mahāgaon,19.78,77.78,915,277.27
Mahālunge,18.49,72.94,167,50.61
Mahān,20.50,77.17,1102,333.94
Mailgaon,19.80,74.87,1669,505.76
Maindargi,17.47,76.30,1551,470.00
Maini,17.43,74.57,2368,717.58
Majgaon,17.55,74.05,2060,624.24
Maji,19.30,80.68,764,231.52
Majpuri,19.80,76.08,1564,473.94
Makardhokra,20.87,79.22,941,285.15
Makhjan,17.27,73.50,574,173.94
Mal,19.77,77.55,1709,517.88
Malabar,18.95,72.78,0,0.00
Malbar,18.95,72.78,0,0.00
Malcolm,17.92,73.67,4438,1344.85
Malewara,20.48,80.38,839,254.24
Malgaon,21.55,74.70,885,268.18
Malgaon,16.87,74.72,1902,576.36
Malgaon,20.45,74.63,1341,406.36
Malgom,17.17,73.25,0,0.00
Malgund,17.17,73.25,0,0.00
Malhana,19.55,72.72,0,0.00
Malhura,19.83,77.20,1712,518.79
Mali,18.53,73.87,1870,566.67
Malikpeth,17.88,75.65,1532,464.24
Malkot,19.05,77.47,1148,347.88
Malkāpur,20.88,76.20,839,254.24
Malkāpur,16.93,73.92,1922,582.42
Malpur,21.28,74.50,702,212.73
Malthan,18.40,74.73,1663,503.94
Malthan,18.83,74.23,2011,609.39
Malunja-Bundruk,19.52,74.72,1591,482.12
Malwan,16.07,73.47,19,5.76
Mamdapur,19.62,74.57,1696,513.94
Mamnoli,19.27,73.28,259,78.48
Man,20.77,77.48,941,285.15
Man,18.68,72.89,65,19.70
Manapur,20.42,80.20,774,234.55
Manchar,19.00,73.93,2237,677.88
Mancharpur,19.52,74.05,1988,602.42
Mandal,21.08,74.87,633,191.82
Mandal,21.28,74.35,974,295.15
Mandangad,17.98,73.25,882,267.27
Mandangarh,17.98,73.25,882,267.27
Mandar,20.00,78.97,633,191.82
Mandara,21.52,73.88,449,136.06
Mandavgan,18.82,74.83,2050,621.21
Mandhāl,20.95,79.47,849,257.27
Mandki,17.77,74.85,1935,586.36
Mandri,21.40,79.40,997,302.12
Mandrup,17.48,75.83,1499,454.24
Mandvad,20.27,74.60,1758,532.73
Mandve,18.80,72.90,164,49.70
Mandvi,18.95,72.83,101,30.61
Mandwa,17.55,73.98,3166,959.39
Mandwe,19.32,74.35,2030,615.15
Mandwe,19.32,74.33,2007,608.18
Mandāna,21.58,74.63,666,201.82
Maneri,15.70,73.97,82,24.85
Manerājuri,17.03,74.70,2083,631.21
Mangalvedha,17.52,75.47,1505,456.06
Mangaon,18.23,73.28,42,12.73
Mangaon,15.98,73.77,101,30.61
Mangrul,20.83,78.25,905,274.24
Mangrul,17.93,76.10,1863,564.55
Mangrul,19.17,73.15,88,26.67
Mangrul,20.62,77.82,984,298.18
Mangrūl,20.32,77.35,1410,427.27
Mangvadi,18.43,73.87,2401,727.58
Manjar,18.83,75.75,2437,738.48
Manjlegaon,19.15,76.23,1354,410.30
Manjrum,18.83,77.45,1249,378.48
Manjūr,18.93,74.32,2001,606.36
Mankeshwar,18.35,75.65,1771,536.67
Mankeshwar,18.15,77.03,1804,546.67
Manmād,20.25,74.45,1902,576.36
Manoharpur,19.52,74.05,1988,602.42
Manor,19.75,72.92,65,19.70
Manora,20.23,77.57,1233,373.64
Manori,19.75,72.92,65,19.70
Manori,19.20,72.78,26,7.88
Mansar,21.40,79.25,1545,468.18
Mantha,19.67,76.38,1476,447.27
Manur,19.07,75.32,1925,583.33
Manwat,19.30,76.50,1430,433.33
Manwath,19.30,76.50,1430,433.33
Marabgi,17.10,75.62,1728,523.64
Marad,18.33,72.97,13,3.94
Maravda,17.43,75.53,1528,463.03
Mardi,17.73,74.70,2312,700.61
Mardi,20.20,78.85,751,227.58
Marg,18.27,73.73,2349,711.82
Marg,17.47,73.33,518,156.97
Markākasa,20.78,80.52,1233,373.64
Maroda,19.97,80.58,1115,337.88
Maroti,20.12,79.62,833,252.42
Marpalli,19.10,80.15,396,120.00
Marve,19.18,72.80,26,7.88
Marwad,21.13,75.03,505,153.03
Marwadi,19.97,77.37,1738,526.67
Marwādi,19.97,77.37,1738,526.67
Masalga,18.13,76.45,2047,620.30
Maseli,20.78,80.43,1341,406.36
Massa,18.48,75.93,2299,696.67
Mastiholi,16.08,74.55,2188,663.03
Masur,17.40,74.17,2007,608.18
Masūra,16.17,73.50,75,22.73
Math,17.00,73.33,347,105.15
Mathagāva,17.00,73.33,347,105.15
Mathana,19.53,72.72,0,0.00
Matheran,18.98,73.27,2224,673.94
Matralipada,18.77,72.90,131,39.70
Maunda,21.15,79.40,810,245.45
Mayani,17.43,74.57,2368,717.58
Mazagaon,18.97,72.84,0,0.00
Mazagon,18.97,72.84,0,0.00
Mazgaon,18.37,72.93,206,62.42
Mazgaon,18.97,72.84,0,0.00
Medha,17.77,73.83,2316,701.82
Medha,17.20,73.92,2372,718.79
Medsi,20.33,76.93,1505,456.06
Mehekar,20.15,76.57,1768,535.76
Mehergaon,20.97,74.63,994,301.21
Mehkar,20.15,76.57,1768,535.76
Mehun,20.37,75.20,2335,707.58
Mehunbare,20.58,74.95,994,301.21
Mendki,20.47,79.80,770,233.33
Menkaiser,18.35,75.65,1771,536.67
Merpalli,19.10,80.15,396,120.00
Merpalli,19.08,80.15,416,126.06
Metpanjra,21.27,78.68,1443,437.27
Metāla,20.68,76.20,1049,317.88
Mhaisgaon,18.13,75.50,1620,490.91
Mhasdi,20.88,74.43,1322,400.61
Mhasla,20.35,75.97,1883,570.61
Mhasla,18.13,73.12,305,92.42
Mhasrang,16.15,74.05,1961,594.24
Mhasurna,17.40,74.45,2217,671.82
Mhasva,20.88,75.15,830,251.52
Mhasvad,17.63,74.78,1942,588.48
Mhasve,20.88,75.15,830,251.52
Mhusla,18.13,73.12,305,92.42
Mhālas,19.05,75.87,1479,448.18
Miraj,16.83,74.63,1814,549.70
Miraj,16.83,74.63,1814,549.70
Mirajgaon,18.73,75.03,1820,551.52
Mire,19.27,72.88,160,48.48
Miri,19.28,74.97,1742,527.88
Mirya,17.02,73.27,0,0.00
Mission,19.43,74.90,1601,485.15
Mogra,21.47,79.32,1141,345.76
Moha,18.47,75.98,2240,678.79
Mohadi,21.02,74.90,725,219.70
Mohari,21.32,79.67,866,262.42
Mohod,17.62,75.10,1656,501.82
Mohod,17.62,75.10,1656,501.82
Mohoda,20.22,78.47,1079,326.97
Mohol,17.82,75.67,1496,453.33
Mohomandli,21.32,75.80,1574,476.97
Mohona,17.72,73.48,377,114.24
Mohore,16.87,74.15,1820,551.52
Mohorāla,21.23,75.67,882,267.27
Mohpa,21.32,78.82,1151,348.79
Mohurli,20.18,79.33,692,209.70
Mohāli,21.28,80.25,1040,315.15
Mojhri,21.05,78.02,1003,303.94
Mokhada,19.93,73.33,1240,375.76
Mominābād,18.73,76.38,2116,641.21
Mond,16.42,73.45,3,0.91
Moosrumgond,19.83,80.28,862,261.21
Mora,18.91,72.93,0,0.00
Morabgi,17.10,75.62,1728,523.64
Morala,17.18,74.70,2381,721.52
Moram,17.80,76.47,1932,585.45
Morath,19.78,77.70,944,286.06
More,18.35,72.93,3,0.91
Morewari,18.60,76.98,1745,528.79
Morgaon,18.28,74.32,2014,610.30
Morsi,21.34,78.01,1145,346.97
Mosam,19.32,80.05,416,126.06
Motāla,20.68,76.20,1049,317.88
Mowar,21.47,78.43,1292,391.52
Mudkhed,19.17,77.52,1217,368.79
Muhapullee,19.83,80.07,623,188.79
Mukapalli,19.83,80.07,623,188.79
Mukapullee,19.83,80.07,623,188.79
Mukher,18.70,77.37,1394,422.42
Mukti,20.87,74.95,843,255.45
Mukutban,19.80,78.85,685,207.58
Mulakhandpāda,18.87,72.95,29,8.79
Mulawa,19.68,77.57,1364,413.33
Mulher,20.77,74.07,2801,848.79
Mulhor,20.77,74.07,2801,848.79
Mumbai,18.98,72.83,91,27.58
Munavli,18.72,72.89,150,45.45
Mundgaon,21.05,76.99,987,299.09
Mundhevādi,17.73,75.72,1473,446.36
Mundhri,21.28,79.75,813,246.36
Mundhrī,21.28,79.75,813,246.36
Mundhva,18.53,73.93,1830,554.55
Mundhwa,18.53,73.93,1830,554.55
Mundīkota,21.37,79.83,839,254.24
Munnar,19.75,72.92,65,19.70
Murad,18.33,72.97,13,3.94
Muramgaon,20.32,80.45,1062,321.82
Murbad,19.25,73.40,272,82.42
Murdara,21.53,80.02,902,273.33
Murdoli,21.23,80.20,971,294.24
Murgud,16.40,74.20,1824,552.73
Murjha,20.33,79.92,656,198.79
Murpār,21.18,80.42,1069,323.94
Murtajapur,20.73,77.38,1013,306.97
Murtazapur,20.73,77.38,1013,306.97
Murud,18.33,72.97,13,3.94
Murud,18.42,76.23,2125,643.94
Murum,18.07,74.32,1797,544.55
Murūd,17.77,73.12,521,157.88
Musalmandi,18.19,72.99,16,4.85
Musalvadi,19.45,74.68,1660,503.03
Musrumgond,19.83,80.28,862,261.21
Muyyabompeta,19.10,79.87,360,109.09
Mādalmoi,19.17,75.70,1587,480.91
Mādha,18.02,75.52,1614,489.09
Māharjhari,21.23,79.02,1023,310.00
Māheji,20.78,75.42,780,236.36
Māhāgaon,20.22,77.90,1069,323.94
Māhīm,19.65,72.73,6,1.82
Māhīm,19.03,72.85,32,9.70
Māhūr,19.85,77.93,1151,348.79
Mājalgaon,19.15,76.23,1354,410.30
Mājri,20.13,79.03,633,191.82
Mālegaon,19.28,77.27,1190,360.61
Mālegaon,18.42,77.53,1437,435.45
Mālegaon,20.25,76.98,1679,508.79
Mālegaon,18.82,77.02,1574,476.97
Mālegaon,20.55,74.53,1400,424.24
Mālhiwri,19.97,77.87,1059,320.91
Mālkhed,20.82,77.88,1108,335.76
Mālkhed,20.43,77.90,1190,360.61
Mālsiras,17.87,74.92,1751,530.61
Mālvan,16.07,73.47,19,5.76
Mālvādi,19.78,74.08,2148,650.91
Mālād,19.18,72.83,26,7.88
Mālūnje,19.52,74.73,1617,490.00
Mālūnje,19.52,74.72,1591,482.12
Mālūnje,19.50,74.70,1607,486.97
Mānda,19.57,72.78,19,5.76
Māndgaon,20.67,78.87,754,228.48
Māndvi,19.48,72.90,42,12.73
Māndwe,19.33,74.35,1873,567.58
Mānegaon,17.98,75.65,1640,496.97
Mānikdaundi,19.08,75.15,2440,739.39
Mānjram,18.83,77.45,1249,378.48
Mānkhurd,19.05,72.93,13,3.94
Mārde,17.80,75.90,1525,462.12
Māregaon,20.10,78.82,853,258.48
Mārkandi,19.98,79.87,610,184.85
Mārvad,21.13,75.03,505,153.03
Mātergaon,20.85,76.55,823,249.39
Mātola,18.08,76.40,1981,600.30
Mātola,18.08,76.40,1981,600.30
Mātunga,19.03,72.85,32,9.70
Māyni,17.43,74.57,2368,717.58
Nachangaon,20.70,78.33,938,284.24
Nadgaon,17.47,73.62,203,61.52
Nagad,20.47,75.17,1082,327.88
Nagaj,17.13,74.93,2273,688.79
Nagaon,18.87,72.93,49,14.85
Nagaon,17.47,73.62,203,61.52
Nagaon,18.61,72.90,36,10.91
Nagaonkhar,18.60,72.92,55,16.67
Nagar,20.57,75.22,935,283.33
Nagardevia,20.57,75.22,935,283.33
Nagardhan,21.35,79.32,1000,303.03
Nagarsul,20.10,74.55,1938,587.27
Nagbhin,20.58,79.67,856,259.39
Nagbhir,20.58,79.67,856,259.39
Nagevadi,17.35,74.53,2244,680.00
Nagewari,18.35,76.85,1906,577.58
Nagjhari,19.05,75.23,2244,680.00
Nagothna,18.53,73.13,39,11.82
Nagpore,21.15,79.10,997,302.12
Nagpur,21.15,79.10,997,302.12
Nahvre,18.67,74.35,1876,568.48
Naigaum,19.00,72.83,72,21.82
Naigavhan,20.18,75.53,2047,620.30
Nakhalgaon,19.05,76.25,1341,406.36
Nalaigaon,18.42,76.82,1961,594.24
Naldrug,17.82,76.30,1856,562.42
Naldurg,17.82,76.30,1856,562.42
Nalegaon,18.42,76.82,1961,594.24
Nalni,20.17,75.88,1824,552.73
Nalwari,20.28,73.75,2103,637.27
Nampur,20.72,74.32,1797,544.55
Nanaj,18.60,75.32,1778,538.79
Nanaj,17.83,75.85,1643,497.88
Nanasi,20.35,73.62,2345,710.61
Nand,20.65,79.30,872,264.24
Nandair,19.15,77.33,1138,344.85
Nandari,21.12,75.18,528,160.00
Nanded,19.15,77.33,1138,344.85
Nanded,21.15,75.27,511,154.85
Nandgaon,18.38,72.92,0,0.00
Nandgaon,20.32,74.65,1528,463.03
Nandgaon,21.02,77.82,1145,346.97
Nandgaon,18.38,72.93,49,14.85
Nandgaon,20.68,77.82,1013,306.97
Nandgaon-Kazi,20.68,77.82,1013,306.97
Nandnee,17.45,75.87,1443,437.27
Nandra,21.12,75.47,580,175.76
Nandur,18.68,75.83,2165,656.06
Nandur,19.10,75.73,1584,480.00
Nandur,19.72,74.15,2125,643.94
Nandura,20.83,76.45,859,260.30
Nandurbar,21.37,74.25,688,208.48
Nanāgar,18.66,72.99,68,20.61
Naoghar,18.89,72.99,13,3.94
Narangwadi,17.97,76.58,2043,619.09
Narayanmaharaj,18.38,74.37,2089,633.03
Nardāna,21.20,74.82,557,168.79
Naringi,19.47,72.80,36,10.91
Narkhed,17.90,75.68,1515,459.09
Narkher,21.47,78.53,1309,396.67
Narmulli,18.02,74.78,1650,500.00
Narsi,19.75,77.02,1489,451.21
Narsingpur,17.98,75.12,1601,485.15
Nasik,19.98,73.80,1870,566.67
Nasik,20.33,73.88,2119,642.12
Nasirabad,21.00,75.67,679,205.76
Nasirabad,21.00,75.67,679,205.76
Nasrāpur,18.25,73.90,2244,680.00
Naude,19.05,73.10,42,12.73
Naudi,17.33,74.03,1870,566.67
Naugaon,19.42,75.52,1404,425.45
Navalyal,16.75,74.90,1820,551.52
Navapur,21.15,73.80,416,126.06
Navdi,17.17,73.57,695,210.61
Navdi,17.33,74.03,1870,566.67
Navedar,18.71,72.87,52,15.76
Navkhār,18.52,73.00,65,19.70
Nawargaon,20.37,79.58,721,218.48
Nawargaon,20.37,79.58,721,218.48
Nawegaon,20.02,79.98,629,190.61
Nawegaon,20.37,79.58,721,218.48
Nawegaon,20.92,80.10,958,290.30
Nawergaon,20.37,79.58,721,218.48
Naydongri,20.35,74.82,1374,416.36
Nayegaon,18.85,77.53,1141,345.76
Neori,17.12,73.30,101,30.61
Ner,20.93,74.52,1082,327.88
Ner,20.48,77.87,1223,370.61
Ner,21.19,77.98,1138,344.85
Neral,19.03,73.32,131,39.70
Neri,20.83,75.67,813,246.36
Neria,17.10,74.23,1814,549.70
Nerla,17.10,74.23,1814,549.70
Nerur,15.98,73.65,177,53.64
Nesari,16.07,74.33,2391,724.55
Nethersole,18.85,73.57,2135,646.97
Neupur,20.38,75.33,2171,657.88
Nevra,17.12,73.30,101,30.61
Nevāsa,19.53,74.93,1574,476.97
Nhāve,18.95,72.97,22,6.67
Nibnutvadi,17.47,74.72,2391,724.55
Nidi,18.53,72.96,39,11.82
Nigda,17.20,73.90,2650,803.03
Nighaw,19.18,77.87,1197,362.73
Nighoj,18.97,74.28,1994,604.24
Nighwa,19.18,77.87,1197,362.73
Nigri,17.65,74.20,2181,660.91
Nigudghar,18.12,73.73,2043,619.09
Nilanga,18.10,76.77,1912,579.39
Nilkat,18.50,76.28,2122,643.03
Nimb,17.78,74.00,2217,671.82
Nimbal,17.37,76.38,1489,451.21
Nimbala,18.03,76.77,1965,595.45
Nimbala,17.37,76.38,1489,451.21
Nimbavda,17.47,74.87,1958,593.33
Nimbgaon,18.57,75.15,1788,541.82
Nimbgaon,19.57,74.38,1791,542.73
Nimbhora,21.17,75.97,784,237.58
Nimbhora,21.17,75.97,784,237.58
Nimbhora,21.17,75.97,784,237.58
Nimla,19.10,76.85,1210,366.67
Nimon,19.72,74.20,2099,636.06
Nimpani,16.40,74.38,1922,582.42
Nimsakhar,18.02,74.77,1660,503.03
Nimskhar,18.02,74.77,1660,503.03
Nimsod,17.47,74.47,2267,686.97
Nipani,16.40,74.38,1922,582.42
Niphad,20.08,74.12,1794,543.64
Nira,17.98,75.12,1601,485.15
Nirmal,19.40,72.77,9,2.73
Nirvāda,21.30,75.35,741,224.55
Nitrūr,19.02,76.18,1469,445.15
Nitur,18.23,76.77,2020,612.12
Nizāmpur,18.32,73.32,219,66.36
Nizāmpur,21.12,74.33,1404,425.45
Nohare,16.87,74.15,1820,551.52
Nul,16.22,74.43,2050,621.21
Numbai,18.98,72.83,91,27.58
Nyahalode,20.98,74.85,656,198.79
Nāchanvāla,20.30,75.43,2093,634.24
Nāgansūr,17.40,76.17,1482,449.09
Nāgothana,18.53,73.13,39,11.82
Nāgri,20.42,78.87,734,222.42
Nāgzan,18.67,72.97,65,19.70
Nāgāpur,18.87,76.43,1538,466.06
Nāgāpur,20.38,75.25,2270,687.88
Nāla,21.58,74.07,449,136.06
Nāndalgaon,19.13,75.97,1417,429.39
Nānder,19.15,77.33,1138,344.85
Nāndori,20.53,78.97,810,245.45
Nāndra,21.12,75.47,580,175.76
Nāndur,19.72,74.15,2125,643.94
Nāndūr,20.83,76.45,859,260.30
Nāndūra,20.83,76.45,859,260.30
Nānnaj,19.68,74.25,2083,631.21
Nānwell,18.27,72.95,610,184.85
Nārāyangaon,19.12,73.98,2139,648.18
Nātambi,18.12,73.80,2204,667.88
Nāteputa,17.90,74.77,1788,541.82
Nāwandi,18.78,77.43,1220,369.70
Nīmba,19.10,76.45,1295,392.42
Nīmbgaon,18.08,74.92,1758,532.73
Nīmgaon,20.43,74.57,1453,440.30
Ojhai,20.10,73.93,1886,571.52
Ojhar,20.10,73.93,1886,571.52
Osmānnagar,18.97,77.30,1407,426.36
Osmānābād,18.17,76.05,2122,643.03
Otūr,19.27,73.98,2198,666.06
Pabal,18.82,74.07,2221,673.03
Pachamba,17.27,73.65,593,179.70
Pachegaon,20.95,78.28,1030,312.12
Pachkheri,20.93,79.50,859,260.30
Pachud,19.55,75.63,1568,475.15
Pachud,19.57,75.65,1489,451.21
Padgha,19.37,73.18,95,28.79
Padghe,19.37,73.18,95,28.79
Padmapur,20.05,79.30,639,193.64
Padoli,18.20,76.27,2073,628.18
Padsali,16.70,73.85,1981,600.30
Pahapal,19.98,78.50,843,255.45
Pahla,21.02,79.67,895,271.21
Pahur,20.70,75.68,1013,306.97
Paidhi,20.75,75.67,961,291.21
Paithan,19.48,75.38,1502,455.15
Palasdev,18.25,74.90,1637,496.06
Palaskhed,18.67,76.25,2096,635.15
Palasner,21.53,75.03,944,286.06
Palavna,17.90,73.23,862,261.21
Palavni,17.90,73.23,862,261.21
Palghar,19.68,72.75,22,6.67
Pali,16.98,73.48,679,205.76
Pali,19.67,73.08,98,29.70
Pali,18.53,73.23,111,33.64
Pali,18.92,75.75,1811,548.79
Palshet,17.43,73.20,242,73.33
Palsi,17.22,74.83,2883,873.64
Palsi,17.82,74.12,2545,771.21
Palso,20.77,77.23,931,282.12
Palus,17.08,74.47,1850,560.61
Palāndur,20.85,80.25,882,267.27
Panchagani,17.92,73.82,4242,1285.45
Panchgaon,19.68,79.50,531,160.91
Panchgaon,21.02,79.17,1000,303.03
Pandara,18.13,74.47,1751,530.61
Pande,18.38,75.23,1801,545.76
Pandharpur,17.67,75.33,1502,455.15
Pandhuri,19.83,73.85,1843,558.48
Pandhurli,19.83,73.85,1843,558.48
Pandāre,18.13,74.47,1751,530.61
Pangaon,18.13,75.73,1627,493.03
Pangaon,18.63,76.63,2060,624.24
Pangari,17.73,73.28,564,170.91
Panhāla,16.82,74.12,2473,749.39
Panvas,16.85,73.33,118,35.76
Panvel,18.98,73.10,91,27.58
Panwel,18.98,73.10,91,27.58
Para,17.22,75.27,2053,622.12
Para,18.63,75.83,2253,682.73
Parali,19.72,73.25,390,118.18
Paras,20.72,76.82,905,274.24
Paratwade,21.30,77.52,1236,374.55
Paratwāda,21.30,77.52,1236,374.55
Parbaini,19.27,76.78,1335,404.55
Parbhani,19.27,76.78,1335,404.55
Parchuri,17.57,73.30,685,207.58
Pardi,20.20,77.25,1768,535.76
Parel,19.00,72.83,72,21.82
Parenda,18.27,75.47,1686,510.91
Pargan,18.46,72.95,862,261.21
Parhur,18.71,72.92,157,47.58
Parincha,18.20,74.10,2178,660.00
Parinche,18.20,74.10,2178,660.00
Parli,18.85,76.53,1509,457.27
Parli,18.85,76.53,1509,457.27
Parner,19.00,74.43,2588,784.24
Parola,20.88,75.12,856,259.39
Parsipada,19.92,73.00,196,59.39
Parsopant,20.48,77.87,1223,370.61
Partur,19.60,76.22,1440,436.36
Parwa,19.98,78.33,780,236.36
Pasali,18.23,73.60,2217,671.82
Patala,20.12,79.00,646,195.76
Patan,20.90,79.00,859,260.30
Patansaongi,21.33,79.03,994,301.21
Patas,18.43,74.47,1840,557.58
Patgaon,16.12,73.95,2352,712.73
Pathri,20.20,79.82,646,195.76
Pathri,19.25,76.45,1387,420.30
Pathrot,21.22,77.36,1236,374.55
Pathrud,18.55,75.55,2050,621.21
Patoda,18.80,75.48,2358,714.55
Patoda,18.57,77.18,1610,487.88
Patode,20.12,74.37,1850,560.61
Patonda,21.12,75.20,528,160.00
Patsul,20.98,77.02,892,270.30
Paturda,20.95,76.72,793,240.30
Paud,18.52,73.60,2473,749.39
Paunar,20.78,78.67,826,250.30
Pauni,20.78,79.63,741,224.55
Pawnar,20.78,78.67,826,250.30
Phagne,20.88,74.83,797,241.52
Phaltan,17.98,74.43,1863,564.55
Phardapur,20.58,75.72,1276,386.67
Phatepur,21.67,74.45,570,172.73
Phonda,16.38,73.82,895,271.21
Phoperikhār,18.74,72.95,29,8.79
Phoplivadi,18.41,72.98,515,156.06
Phulambri,20.10,75.42,2106,638.18
Phulsangvi,19.72,77.90,908,275.15
Phursangi,18.47,73.98,1932,585.45
Phursungi,18.47,73.98,1932,585.45
Phustola,20.05,80.23,751,227.58
Poghāt,20.40,77.35,1358,411.52
Pohara,21.03,79.83,836,253.33
Pohegaon,19.80,74.40,1715,519.70
Pohegaon,19.80,74.40,1715,519.70
Pohna,20.35,78.73,731,221.52
Pohogaon,19.80,74.40,1715,519.70
Pohor,20.88,77.88,1276,386.67
Pohrā,21.03,79.83,836,253.33
Poinad,18.68,72.99,59,17.88
Pomalvadi,18.28,74.95,1656,501.82
Pombhurla,16.50,73.53,708,214.55
Pomurna,19.87,79.63,593,179.70
Poona,18.53,73.87,1870,566.67
Poona,18.53,73.83,1896,574.55
Pulgaon,20.73,78.33,935,283.33
Pulunj,17.65,75.53,1499,454.24
Puna,18.53,73.87,1870,566.67
Pune,18.53,73.87,1870,566.67
Puntamba,19.75,74.60,1584,480.00
Punwat,19.93,79.07,610,184.85
Pural,16.45,73.37,0,0.00
Purandhar,18.28,73.98,3467,1050.61
Purangad,16.82,73.32,19,5.76
Purangarh,16.82,73.32,19,5.76
Purkahur,19.48,80.47,1076,326.06
Purla,20.32,79.97,659,199.70
Purli,18.85,76.53,1509,457.27
Purli,18.85,76.53,1509,457.27
Purngad,16.82,73.32,19,5.76
Pusad,19.90,77.58,1033,313.03
Pusegaon,17.72,74.33,2670,809.09
Pusesavli,17.47,74.33,2391,724.55
Pusla,21.50,78.35,1338,405.45
Prakāsha,21.52,74.37,374,113.33
Pravara,19.62,75.02,1558,472.12
Rahata,19.72,74.48,1692,512.73
Raher,18.90,77.67,1092,330.91
Rahimatpur,17.60,74.20,2155,653.03
Rahu,21.71,77.44,1673,506.97
Rahunatpur,17.60,74.20,2155,653.03
Rahuri,19.38,74.65,1676,507.88
Raigaon,17.42,74.32,2352,712.73
Raimoh,18.98,75.50,1909,578.48
Raipur,21.58,77.27,1699,514.85
Raipur,20.40,76.15,2027,614.24
Raipur,21.08,73.83,610,184.85
Raireshwar,18.05,73.73,3786,1147.27
Raisingpur,21.57,73.93,462,140.00
Rajale,18.03,74.57,1745,528.79
Rajanvadi,16.60,73.92,2568,778.18
Rajapur,20.17,74.63,2086,632.12
Rajapur,16.67,73.52,236,71.52
Rajaram,19.27,80.15,479,145.15
Rajegaon,19.23,76.10,1443,437.27
Rajewadi,18.38,74.17,2358,714.55
Rajgaon,19.97,77.15,1512,458.18
Rajgoli,16.03,74.43,2450,742.42
Rajgurunagar,18.87,73.90,2063,625.15
Rajoli,20.68,80.25,853,258.48
Rajoli,20.20,79.70,646,195.76
Rajoli,20.20,79.70,646,195.76
Rajpuri,18.30,72.97,0,0.00
Rajur,19.52,73.87,2513,761.52
Rajur,20.12,78.92,751,227.58
Rajur,19.23,73.78,2431,736.67
Rajur,20.32,77.02,1591,482.12
Rajur,20.32,77.02,1591,482.12
Rajurvadi,20.08,78.42,1007,305.15
Rajvad,20.97,75.20,731,221.52
Rakasbhovn,19.37,75.62,1417,429.39
Rakshasbhuwan,19.37,75.62,1417,429.39
Ralegaon,20.42,78.52,816,247.27
Ramgaon,20.40,77.60,1223,370.61
Ramgarh,16.23,73.62,321,97.27
Ramghāt,15.83,74.12,1768,535.76
Ramgoan-Rameshwar,20.40,77.60,1223,370.61
Rampuri,19.12,76.58,1256,380.61
Ramtek,21.40,79.33,1131,342.73
Ranala,21.33,74.40,800,242.42
Rangrao,21.41,77.18,2093,634.24
Rangāswāsni,21.09,77.48,1095,331.82
Rani,18.85,76.87,1443,437.27
Ranisavergaon,18.85,76.87,1443,437.27
Ranjangaon,18.88,74.58,2103,637.27
Ranjangaon,18.75,74.23,2047,620.30
Ranjangaon,18.75,74.23,2047,620.30
Ranjani,19.67,76.13,1492,452.12
Ranjankhar,18.81,72.93,32,9.70
Ranjngaon,18.88,74.58,2103,637.27
Ranjni,19.67,76.13,1492,452.12
Ranyad,18.88,72.91,42,12.73
Raogaon,18.45,75.12,1863,564.55
Rashivda,16.55,74.10,1778,538.79
Rashivde,16.55,74.10,1778,538.79
Rassin,18.43,74.93,1847,559.70
Ratnagiri,16.98,73.30,36,10.91
Ravangaon,18.35,74.63,1781,539.70
Raver,21.25,76.03,813,246.36
Rayate,19.25,73.22,154,46.67
Raykheda,21.63,74.55,574,173.94
Rel,20.92,77.03,882,267.27
Renavi,17.28,74.60,2677,811.21
Renāpur,18.52,76.60,1952,591.52
Revadanda,18.55,72.93,32,9.70
Revas,18.79,72.93,19,5.76
Revas,18.82,72.95,0,0.00
Revas,18.82,72.95,0,0.00
Revas-Bunder,18.82,72.95,0,0.00
Revdanda,18.55,72.93,32,9.70
Risewāda,21.38,80.55,1010,306.06
Risod,19.97,76.78,1778,538.79
Rithad,20.05,76.97,1627,493.03
Roha,18.43,73.12,177,53.64
Roha-Kolaba,18.43,73.12,177,53.64
Rohankhed,20.62,76.12,1194,361.82
Rohna,20.87,78.35,1003,303.94
Rojhava,21.62,74.22,498,150.91
Ropla,18.22,75.37,1673,506.97
Ropla,17.78,75.40,1541,466.97
Rople,18.22,75.37,1673,506.97
Rui,20.17,78.05,928,281.21
Ruichattisi,18.90,74.83,2020,612.12
Rukadi,16.72,74.32,1732,524.85
Rukdi,16.72,74.32,1732,524.85
Runjha,20.17,78.50,931,282.12
Rupnayal,16.62,74.72,1768,535.76
Rutnagherry,16.98,73.30,36,10.91
Rādhānagari,16.40,74.00,2034,616.36
Rāheri,19.98,76.30,1656,501.82
Rāigaon,19.83,76.60,1528,463.03
Rāipur,21.08,78.95,931,282.12
Rāja,19.33,76.03,1358,411.52
Rājevādi,18.38,74.17,2358,714.55
Rājur,18.53,77.48,1256,380.61
Rājuri,18.68,75.33,2014,610.30
Rājuri,18.33,75.00,1811,548.79
Rājurwādi,20.08,78.42,1007,305.15
Rājūra,19.78,79.37,593,179.70
Rājūra,18.70,76.93,1686,510.91
Rāmpuri,19.30,75.98,1381,418.48
Rāmpūri,19.12,76.58,1256,380.61
Rāni,19.63,75.97,1545,468.18
Rānvād,18.88,72.91,42,12.73
Rānīgohān,21.32,76.79,2080,630.30
Rāsegaon,20.17,73.75,2280,690.91
Rāshivade,16.55,74.10,1778,538.79
Rāwankol,18.43,77.27,1541,466.97
Rāypātan,16.70,73.70,272,82.42
Sada,18.28,75.28,1778,538.79
Sadavan,20.98,75.08,688,208.48
Sade,18.28,75.28,1778,538.79
Sadepur,17.43,75.70,1440,436.36
Sagar,20.25,79.17,764,231.52
Sahan,18.63,72.91,26,7.88
Sahur,21.32,78.22,1154,349.70
Saigavhar,20.40,75.15,1243,376.67
Saikhede,20.02,74.00,1732,524.85
Sailu,20.85,78.70,879,266.36
Sailu,19.47,76.47,1361,412.42
Sajvahal,20.60,74.68,1381,418.48
Sakardarā,21.13,79.12,997,302.12
Sakhare,19.92,72.80,52,15.76
Sakol,18.28,76.88,1801,545.76
Sakoli,21.08,79.98,767,232.42
Sakri,20.98,74.32,1325,401.52
Sakritola,21.27,80.42,1013,306.97
Sakuri,19.35,74.32,1938,587.27
Salabatpur,19.55,75.05,1558,472.12
Salegaon,19.07,76.37,1269,384.55
Salegaon,19.87,75.00,1620,490.91
Salgar,16.88,74.92,2076,629.09
Salgare,16.88,74.92,2076,629.09
Salod,20.70,78.55,866,262.42
Samsherpur,19.63,73.97,2532,767.27
Samudrapur,20.65,78.97,754,228.48
Sangameshvar,17.18,73.55,347,105.15
Sangameshwar,17.18,73.55,347,105.15
Sangamner,19.57,74.22,1801,545.76
Sangamnor,19.57,74.22,1801,545.76
Sangarhi,20.95,79.97,767,232.42
Sangevadi,17.53,75.27,1617,490.00
Sangla,16.87,74.57,1788,541.82
Sangli,16.87,74.57,1788,541.82
Sanglud,20.75,77.12,918,278.18
Sanglud,20.75,77.12,918,278.18
Sanglud,20.75,77.12,918,278.18
Sangola,17.43,75.20,1702,515.76
Sangrampur,21.03,76.67,898,272.12
Sangvi,20.13,75.30,2181,660.91
Santa,19.08,72.83,39,11.82
Sanvarda,17.40,73.48,370,112.12
Saokher,19.60,75.20,1505,456.06
Saoner,21.38,78.90,1033,313.03
Saonga,21.27,78.40,1295,392.42
Saphāla,19.57,72.83,29,8.79
Saptashring,20.40,73.90,3759,1139.09
Saptasring,20.40,73.90,3759,1139.09
Sarad,20.47,73.75,2611,791.21
Saralgaon,19.28,73.50,275,83.33
Sarangkheda,21.43,74.53,410,124.24
Saranvadi,18.23,75.52,1640,496.97
Saravali,19.95,72.77,26,7.88
Saravde,16.43,74.10,1761,533.64
Saravli,19.78,72.75,29,8.79
Sargapur,17.80,76.17,1666,504.85
Sarne,18.37,72.92,173,52.42
Sarni,18.75,75.90,2260,684.85
Sarud,16.92,74.03,1856,562.42
Sarvada,16.43,74.10,1761,533.64
Sarve,18.25,72.95,42,12.73
Sasaune,18.78,72.87,72,21.82
Sasupada,19.30,72.90,0,0.00
Satak,21.33,79.27,1026,310.91
Satana,20.58,74.20,1784,540.61
Satara,16.95,74.40,1860,563.64
Satara,16.98,74.13,1952,591.52
Sategaon,21.11,77.24,1118,338.79
Satgaon,20.40,76.22,1952,591.52
Satirje,18.74,72.89,65,19.70
Satkatta,16.07,74.52,2332,706.67
Satona,19.50,76.37,1407,426.36
Satrasen,21.37,75.15,885,268.18
Satuna,19.50,76.37,1407,426.36
Satuna,19.50,76.37,1407,426.36
Saundana,20.45,74.40,1650,500.00
Saundane,20.45,74.40,1650,500.00
Savangi,20.60,78.28,843,255.45
Savlaj,17.10,74.78,2263,685.76
Savrat,17.58,73.77,2211,670.00
Savta,19.95,72.77,26,7.88
Savta,19.95,72.77,26,7.88
Selbāri,20.87,74.13,2467,747.58
Selgaon,20.25,76.72,1728,523.64
Selu,19.47,76.47,1361,412.42
Semboli,19.23,77.50,1230,372.73
Sembādeh,21.50,77.32,1843,558.48
Semsherpur,19.63,73.97,2532,767.27
Sendri,18.17,75.57,1591,482.12
Sendurjan,20.15,77.45,1679,508.79
Sendurjan,20.12,76.47,1919,581.52
Sendurjana,20.12,76.47,1919,581.52
Sendurjana,20.15,77.45,1679,508.79
Sengaon,19.80,76.87,1604,486.06
Seona,20.48,75.80,2060,624.24
Sevagram,20.67,78.55,823,249.39
Sewagram,20.67,78.55,823,249.39
Sewri,19.00,72.85,0,0.00
Sewri,19.00,72.85,0,0.00
Shahapur,19.50,75.75,1407,426.36
Shahapur,19.45,73.33,150,45.45
Shamgaon,17.40,74.23,2447,741.52
Shankarpur,20.65,79.53,875,265.15
Shedbal,16.72,74.75,1912,579.39
Shegaon,20.82,76.05,921,279.09
Shegaon,20.33,79.15,751,227.58
Shegaon,20.78,76.68,905,274.24
Shegaon,20.33,79.15,751,227.58
Shegaon,20.82,76.05,921,279.09
Shelgaon,20.78,76.13,912,276.36
Shelu,20.37,77.25,1414,428.48
Shelu,20.37,77.25,1414,428.48
Shelu,20.37,77.25,1414,428.48
Shendi,19.17,74.78,2273,688.79
Shendi,19.55,73.77,2237,677.88
Shendurni,20.65,75.58,1085,328.79
Shendurwara,19.68,75.22,1541,466.97
Shenit,19.82,73.80,1843,558.48
Shenwa,19.43,73.45,364,110.30
Sheoli,19.82,76.28,1925,583.33
Sherad,18.78,75.07,1817,550.61
Sheradhon,18.52,76.18,2214,670.91
Shetphal,17.90,75.43,1676,507.88
Sheva,18.94,72.96,108,32.73
Sheva,18.96,72.97,0,0.00
Shevali,20.83,74.45,2155,653.03
Shevgaon,19.35,75.23,1591,482.12
Shevāda,21.15,74.58,836,253.33
Shikrapur,18.68,74.15,1870,566.67
Shilena,19.75,77.63,1210,366.67
Shilona,19.75,77.63,1210,366.67
Shinde,19.92,73.88,1781,539.70
Shindevadi,17.57,75.40,1492,452.12
Shingnapur,17.85,74.67,2667,808.18
Shingve,19.27,74.67,1850,560.61
Shingwe,19.27,74.67,1850,560.61
Shingāit,20.90,75.73,734,222.42
Shirdi,19.77,74.48,1653,500.91
Shirgaon,18.49,72.97,141,42.73
Shirgaon,16.38,73.58,492,149.09
Shirgaon,17.43,73.63,918,278.18
Shirgaon-Devgad,16.38,73.58,492,149.09
Shirguppi,16.62,74.72,1768,535.76
Shirkhed,21.22,77.94,1145,346.97
Shirnandgi,17.30,75.43,1673,506.97
Shirol,16.73,74.60,1732,524.85
Shiroshi,19.40,73.62,705,213.64
Shirpur,21.35,74.88,511,154.85
Shirsadi,17.87,73.33,597,180.91
Shirsala,21.07,74.98,613,185.76
Shirsi,20.68,79.17,830,251.52
Shirsi,17.37,75.32,1837,556.67
Shirsoli,20.92,75.53,738,223.64
Shirud,20.72,74.90,974,295.15
Shirval,18.13,73.98,1978,599.39
Shirwal,18.13,73.98,1978,599.39
Shirāla,16.98,74.13,1952,591.52
Shirāla,16.47,73.87,1420,430.30
Shiur,20.03,78.07,928,281.21
Shivna,17.53,75.17,1679,508.79
Shivner,19.20,73.88,2260,684.85
Shivni,19.33,78.10,1364,413.33
Shivni,19.52,77.28,1453,440.30
Sholāpur,17.68,75.92,1502,455.15
Shot,18.97,72.93,127,38.48
Shrigonda,18.62,74.68,1840,557.58
Shriwardham,18.03,73.02,0,0.00
Shāhgadh,19.37,75.72,1368,414.55
Shāhāda,21.55,74.47,413,125.15
Shāhāda,21.47,74.30,423,128.18
Shāhājāpur,19.88,74.35,1732,524.85
Sidhnath,19.82,75.00,1587,480.91
Sihora,21.48,79.85,935,283.33
Silegaon,19.87,75.00,1620,490.91
Sillod,20.30,75.65,2007,608.18
Sindewāhi,20.28,79.65,652,197.58
Sindhkhed,19.87,78.13,889,269.39
Sindi,20.80,78.87,797,241.52
Sindkeda,21.27,74.73,551,166.97
Sindkhed,19.97,76.13,1804,546.67
Sindkheda,21.27,74.73,551,166.97
Sindkher,19.87,78.13,889,269.39
Sindvani,21.85,74.32,1128,341.82
Singad,20.05,77.63,1309,396.67
Singpur,21.58,74.12,423,128.18
Sinnar,19.85,74.00,2135,646.97
Sion,19.03,72.85,32,9.70
Siradhon,17.37,75.58,1492,452.12
Sirasgaon,21.33,77.68,1295,392.42
Sirauda,17.37,74.15,1922,582.42
Siravda,17.37,74.15,1922,582.42
Sirgupi,16.62,74.72,1768,535.76
Sirli,19.52,77.23,1463,443.33
Sirpur,20.17,76.95,1768,535.76
Sirpur,20.53,78.38,823,249.39
Sirsala,18.97,76.37,1453,440.30
Sirsi,20.68,79.17,830,251.52
Sirsuphal,18.32,74.58,1873,567.58
Sirūr,18.83,74.38,1840,557.58
Sirūr,19.07,75.43,1715,519.70
Sirūr,18.63,76.97,1755,531.82
Sivala,19.53,77.45,1351,409.39
Sivni,20.68,77.05,1069,323.94
Sivral,20.08,74.88,1863,564.55
Sivungaon,19.10,77.55,1253,379.70
Siwāla,19.53,77.45,1351,409.39
Sofāle,19.57,72.83,29,8.79
Solāpur,17.68,75.92,1502,455.15
Sonai,19.40,74.82,1640,496.97
Sonari,18.91,72.99,19,5.76
Sondad,21.07,80.10,767,232.42
Sondo,19.67,79.33,672,203.64
Sonegaon,18.57,75.42,1797,544.55
Sonegaon,20.65,78.68,839,254.24
Sonepet,19.03,76.48,1279,387.58
Sonepett,19.03,76.48,1279,387.58
Songaon,18.07,74.55,1719,520.91
Songir,21.08,74.78,803,243.33
Sonkher,19.03,77.23,1272,385.45
Sonpara,21.32,73.98,492,149.09
Sonsari,20.52,80.23,764,231.52
Sonvad,21.08,75.35,564,170.91
Sonāri,18.37,75.43,1683,510.00
Soonkhed,19.03,77.23,1272,385.45
Sophala,19.57,72.83,29,8.79
Sopāra,19.42,72.78,19,5.76
Southada,18.80,75.37,2513,761.52
Soygaon,20.60,75.62,1230,372.73
Srīvardhan,18.03,73.02,0,0.00
Sugaon,18.58,77.30,1525,462.12
Sukene,20.08,74.02,1801,545.76
Sultānpur,20.08,76.50,1732,524.85
Sumba,18.30,76.25,2171,657.88
Supa,18.33,74.38,2050,621.21
Supe,18.95,74.53,2316,701.82
Supegan,18.42,72.95,554,167.88
Supegaon,18.85,76.77,1417,429.39
Surai,18.51,72.92,32,9.70
Surdi,18.07,75.70,1587,480.91
Suregaonrasta,19.97,74.62,1738,526.67
Surekhar,18.75,72.87,59,17.88
Surgana,20.57,73.62,1748,529.70
Surjagarh,19.60,80.42,685,207.58
Surul,17.95,73.98,2522,764.24
Survani,21.83,74.17,1358,411.52
Suryamāl,19.77,73.33,1532,464.24
Susarda,21.40,76.76,1092,330.91
Sutkatta,16.07,74.52,2332,706.67
Sutkatte,16.07,74.52,2332,706.67
Tadali,20.03,79.20,711,215.45
Tadgaon,18.47,72.98,45,13.64
Tadvagle,18.65,72.98,104,31.52
Tadwalla,18.37,76.05,2208,669.09
Taharpur,19.55,73.25,285,86.36
Taharābād,20.77,74.13,2240,678.79
Tair,18.32,76.15,2060,624.24
Takarkheda,21.03,75.18,652,197.58
Takwa,18.80,73.60,2096,635.15
Takwa,18.80,73.60,2096,635.15
Tala,18.28,73.13,265,80.30
Talavada,15.87,73.73,49,14.85
Talavda,15.87,73.73,49,14.85
Talbid,17.35,74.13,1916,580.61
Talegaon,20.68,78.10,921,279.09
Talegaon,19.70,74.30,1978,599.39
Talegaon,20.15,73.82,2181,660.91
Talegaon,21.12,78.20,1013,306.97
Talegaon,18.72,73.68,2050,621.21
Talegaon,20.68,78.10,921,279.09
Talegaon,18.65,74.15,1824,552.73
Talegaon,18.65,74.15,1824,552.73
Talegaon-Dabhada,18.72,73.68,2050,621.21
Talegarh,19.08,73.63,3244,983.03
Taleghar,19.08,73.63,3244,983.03
Talekhar,18.45,72.99,39,11.82
Talgaon,16.10,73.67,118,35.76
Talkhad,19.18,76.03,1430,433.33
Talkher,19.18,76.03,1430,433.33
Talmud,17.83,76.75,1840,557.58
Talni,19.88,76.48,1643,497.88
Talni,20.77,78.25,895,271.21
Talni,18.78,77.62,1210,366.67
Taloda,21.57,74.22,380,115.15
Talode,20.48,74.83,1200,363.64
Talodhi,20.45,79.65,725,219.70
Taloje,19.08,73.08,45,13.64
Taloje,19.08,73.08,45,13.64
Talvada,20.73,75.10,984,298.18
Talvada,20.73,75.10,984,298.18
Talvād,20.18,74.78,1889,572.42
Talwai,19.32,75.87,1371,415.45
Talwāl,19.32,75.87,1371,415.45
Talāsri,20.10,72.92,147,44.55
Tamalwādi,17.83,75.97,1624,492.12
Tambe,18.85,75.50,2516,762.42
Tana,20.73,74.20,2116,641.21
Tandulvadi,17.75,76.10,1591,482.12
Tandulwadi,17.75,76.10,1591,482.12
Tanna,19.20,72.97,29,8.79
Taradgaon,18.03,74.25,1919,581.52
Tarapore,19.85,72.70,36,10.91
Tarapur,17.70,75.47,1496,453.33
Tarapur,19.85,72.70,36,10.91
Tardeo,18.97,72.82,101,30.61
Targaon,17.52,74.15,2020,612.12
Tarkalas,19.13,76.95,1233,373.64
Tarla,17.50,73.98,2132,646.06
Tarla,16.47,74.03,1758,532.73
Tarora,20.40,74.75,1377,417.27
Tarwādi,20.75,76.35,1010,306.06
Telhara,21.03,76.84,898,272.12
Tembhi,19.75,77.83,921,279.09
Tembhuida,20.35,79.02,787,238.48
Tembhurni,18.02,75.20,1696,513.94
Tembhurni,20.13,75.98,1801,545.76
Tempa,20.67,79.58,866,262.42
Ter,18.32,76.15,2060,624.24
Terevādi,18.05,73.30,121,36.67
Terkhed,18.45,75.83,2319,702.73
Thadbai,19.75,80.58,872,264.24
Thair,18.32,76.15,2060,624.24
Thal,18.69,72.87,85,25.76
Thal,18.58,72.92,32,9.70
Thalner,21.27,74.95,472,143.03
Thari,21.35,78.30,1184,358.79
Thengode,20.52,74.20,1706,516.97
Ther,18.32,76.15,2060,624.24
Thergaon,18.77,74.95,2037,617.27
Thākurvādi,18.82,73.37,1295,392.42
Thāna,19.20,72.97,29,8.79
Thāne,19.20,72.97,29,8.79
Thānepāda,21.27,74.27,1263,382.73
Thāngaon,19.70,73.93,2828,856.97
Tikondi,17.03,75.57,1715,519.70
Timdūlvādi,17.83,75.97,1624,492.12
Tingria,21.76,77.43,1489,451.21
Tirth,17.67,75.78,1512,458.18
Tirthpuri,19.43,75.93,1381,418.48
Tiruthpuri,19.43,75.93,1381,418.48
Tirāoda,16.55,73.77,518,156.97
Tisgaon,19.18,75.07,1732,524.85
Tivsa,21.08,78.05,1007,305.15
Tohogaon,19.67,79.50,524,158.79
Tokade,20.65,74.60,1456,441.21
Tonda,16.93,73.37,387,117.27
Tondāpur,20.58,75.82,1269,384.55
Top,16.78,74.28,1837,556.67
Torkhed,21.42,74.67,426,129.09
Torna,18.27,73.62,3471,1051.82
Torna,18.27,73.62,3471,1051.82
Trimbak,19.93,73.55,2362,715.76
Trombay,19.00,72.90,3,0.91
Trombay,19.03,72.93,32,9.70
Tuljapur,18.00,76.08,2125,643.94
Tuljapur,20.80,78.82,820,248.48
Tulla,18.28,73.13,265,80.30
Tumsar,21.38,79.73,892,270.30
Turambhe,19.07,73.02,32,9.70
Tākalghāt,20.92,78.90,935,283.33
Tākarkhera,21.10,77.66,1072,324.85
Tākli,19.45,74.67,1666,504.85
Tākli,18.63,74.22,1768,535.76
Tākli,20.07,75.23,2260,684.85
Tākli,19.05,74.83,2178,660.00
Tākli,19.15,74.38,2641,800.30
Tāklibhān,19.62,74.80,1601,485.15
Tāmasvādi,20.78,75.05,856,259.39
Tāmsa,19.37,77.62,1404,425.45
Tāngla,21.53,79.47,1174,355.76
Tāra,19.08,72.83,39,11.82
Tārla,16.47,74.03,1758,532.73
Tārubānda,21.47,77.14,1860,563.64
Tārābād,19.40,74.50,2125,643.94
Tārāpur,19.85,72.70,36,10.91
Tāsgaon,17.03,74.60,1837,556.67
Ubarkhed,20.93,76.90,816,247.27
Udgīr,18.38,77.12,2073,628.18
Udmal,20.67,73.48,1230,372.73
Udua,20.08,73.00,269,81.52
Udva,20.08,73.00,269,81.52
Ujni,18.70,76.70,1853,561.52
Ukshi,17.10,73.43,738,223.64
Ulhāsnagar,19.22,73.15,62,18.79
Umanoor,19.05,80.08,574,173.94
Umapur,19.30,75.60,1515,459.09
Umarga,17.83,76.62,1876,568.48
Umarkhed,19.60,77.70,1364,413.33
Umbarpada,19.47,73.08,85,25.76
Umberpāda,19.47,73.08,85,25.76
Umbra,20.22,76.65,1774,537.58
Umbra,17.93,74.88,1614,489.09
Umbraj,17.40,74.12,1912,579.39
Umbrane,20.42,74.35,1745,528.79
Umdi,17.27,75.60,1538,466.06
Umdi,17.27,75.60,1538,466.06
Umdi,17.27,75.60,1538,466.06
Umele,19.35,72.83,6,1.82
Ummapur,19.30,75.60,1515,459.09
Umred,20.85,79.33,918,278.18
Umrer,20.85,79.33,918,278.18
Umri,19.03,77.65,1259,381.52
Umri,20.10,77.58,1309,396.67
Umri,19.18,76.65,1361,412.42
Umri,19.85,78.20,918,278.18
Umunur,19.05,80.08,574,173.94
Umāla,20.92,75.65,938,284.24
Unchagao,16.70,74.28,1765,534.85
Unchagoa,16.70,74.28,1765,534.85
Unchegaon,19.63,75.97,1545,468.18
Undangaon,20.47,75.67,2286,692.73
Undīrgaon,19.68,74.68,1656,501.82
Upla,18.25,76.07,2168,656.97
Uplai,17.95,75.48,1692,512.73
Uple,18.25,76.07,2168,656.97
Uran,18.88,72.94,68,20.61
Uruli,18.48,74.13,1830,554.55
Uruli,18.48,74.13,1830,554.55
Urun,17.05,74.27,1883,570.61
Urun-Islāmpur,17.05,74.27,1883,570.61
Usarni,19.58,72.72,13,3.94
Ushtumme,18.45,73.13,39,11.82
Usmanabad,18.17,76.05,2122,643.03
Usurai,19.58,72.72,13,3.94
Utan,19.28,72.78,22,6.67
Uthambar,17.92,73.07,111,33.64
Uttur,16.23,74.27,2168,656.97
Vada,19.65,73.13,124,37.58
Vadachapat,16.13,73.57,324,98.18
Vadala,17.87,75.82,1637,496.06
Vadala,19.43,74.90,1601,485.15
Vadalibhuj,20.28,74.12,2155,653.03
Vadangali,19.92,74.17,1811,548.79
Vadangli,19.92,74.17,1811,548.79
Vadel,20.63,74.47,1509,457.27
Vadgaon,18.73,73.65,2125,643.94
Vadgaon,16.85,74.32,1833,555.45
Vadgaon-Nimbalkar,18.13,74.37,1784,540.61
Vadgaon-Pan,19.58,74.28,1824,552.73
Vadhoda,21.00,76.37,843,255.45
Vadhon,20.98,78.35,1200,363.64
Vadjhira,19.02,74.33,2240,678.79
Vadner,20.25,74.03,2040,618.18
Vadod,20.15,75.53,2027,614.24
Vadod,20.15,75.53,2027,614.24
Vadod,20.15,75.53,2027,614.24
Vadul,17.60,74.45,2391,724.55
Vadālibhui,20.28,74.12,2155,653.03
Vadūj,17.60,74.45,2391,724.55
Vagda,16.25,73.73,298,90.30
Vaghadi,21.38,74.85,479,145.15
Vaghari,20.80,75.90,1017,308.18
Vaghh,20.52,75.10,1013,306.97
Vagholi,17.62,75.65,1519,460.30
Vagholi,18.71,72.95,131,39.70
Vagholi,18.58,73.98,1965,595.45
Vaghrankhar,18.73,72.95,29,8.79
Vaghunde,18.93,74.52,2273,688.79
Vaghunde,18.93,74.52,2273,688.79
Vaijapur,19.92,74.73,1686,510.91
Vairāg,18.05,75.80,1594,483.03
Vaishet,18.69,72.88,78,23.64
Vajapur,19.00,73.22,318,96.36
Vajhur,19.07,76.85,1197,362.73
Vakav,17.98,75.60,1532,464.24
Vakhari,17.68,75.28,1538,466.06
Vakle,20.20,74.83,1925,583.33
Valap,19.05,73.13,318,96.36
Valavli,18.58,72.98,209,63.33
Valha,18.18,74.17,2106,638.18
Valki,18.95,74.75,2158,653.94
Valsang,17.60,76.08,1584,480.00
Valsang,17.05,75.32,2178,660.00
Valsavangi,20.47,75.93,1955,592.42
Valunjvadi,19.20,74.07,2211,670.00
Vambori,19.28,74.73,1850,560.61
Vangaon,19.87,72.75,39,11.82
Vanghunde,18.93,74.52,2273,688.79
Vangi,17.57,75.83,1463,443.33
Vangi,18.18,75.15,1742,527.88
Vangi,17.25,74.37,2158,653.94
Vani,20.33,73.88,2119,642.12
Vankas,20.08,72.88,98,29.70
Vanked,16.77,73.58,278,84.24
Vanyagana,17.05,73.48,820,248.48
Vapahgaon,18.88,73.98,2322,703.64
Vaphgaon,18.88,73.98,2322,703.64
Varad,20.98,75.40,711,215.45
Varandha,18.13,73.57,177,53.64
Varangaon,21.02,75.90,757,229.39
Varkheda,20.25,73.90,1975,598.48
Varkute,17.68,75.55,1522,461.21
Varse,20.92,73.98,1932,585.45
Varshi,21.25,74.83,469,142.12
Varsi,21.25,74.83,469,142.12
Varsoli,18.67,72.87,62,18.79
Varsoli,18.67,72.83,0,0.00
Varud,20.35,75.88,1984,601.21
Varula,18.75,73.48,2043,619.09
Vasai,19.35,72.80,13,3.94
Vasali,19.65,73.73,2112,640.00
Vashi,18.75,73.03,36,10.91
Vasind,19.42,73.27,85,25.76
Vatambra,17.37,75.10,1683,510.00
Vathar,17.88,74.15,2709,820.91
Vatul,16.75,73.60,393,119.09
Vaygaon,20.65,74.35,1719,520.91
Vayphāl,17.17,75.25,2076,629.09
Vedhi,19.55,72.78,26,7.88
Vedshi,18.33,75.97,2244,680.00
Velas,17.97,73.03,154,46.67
Velas,18.20,72.99,16,4.85
Velast,18.37,72.98,659,199.70
Velavli,18.61,72.96,85,25.76
Velneshvar,17.38,73.20,0,0.00
Velneshwar,17.38,73.20,0,0.00
Veltur,20.98,79.58,810,245.45
Velāpur,17.80,75.07,1637,496.06
Vengurla,15.87,73.63,36,10.91
Verul,20.55,73.87,2208,669.09
Ves,19.77,74.38,1771,536.67
Vesava,19.13,72.80,0,0.00
Veshvi,18.65,72.89,55,16.67
Vichumbe,18.98,73.13,36,10.91
Vichva,20.93,75.87,971,294.24
Vida,18.82,75.93,2398,726.67
Vidul,19.57,77.77,1332,403.64
Vifgaon,18.88,73.98,2322,703.64
Vigatpuri,19.70,73.55,1922,582.42
Vihur,18.35,72.94,101,30.61
Vijayadurg,16.57,73.33,0,0.00
Vijaydurg,16.57,73.33,0,0.00
Vikhroli,19.10,72.92,32,9.70
Vilad,19.20,74.67,1984,601.21
Vile,19.10,72.83,39,11.82
Vile-Parele,19.10,72.83,39,11.82
Ville,19.10,72.83,39,11.82
Vinbera,17.90,73.40,1279,387.58
Vinchūr,20.10,74.22,1906,577.58
Vinhera,17.90,73.40,1279,387.58
Virathān,19.55,72.78,26,7.88
Viravda,17.33,74.22,1981,600.30
Viravdi,17.33,74.22,1981,600.30
Virdel,21.32,74.70,531,160.91
Virgaon,20.67,74.13,2073,628.18
Virgaon,19.82,74.77,1607,486.97
Virmora,17.80,73.97,2250,681.82
Virpur,21.72,74.42,826,250.30
Virul,20.80,78.38,1053,319.09
Virul,20.85,78.10,1040,315.15
Virul-Ronghe,20.85,78.10,1040,315.15
Virār,19.47,72.80,36,10.91
Visapur,17.10,74.60,2007,608.18
Visapur,18.82,74.58,1981,600.30
Visarwari,21.18,73.97,646,195.76
Vishalgad,16.90,73.75,2221,673.03
Vishalgad-Amba,16.90,73.75,2221,673.03
Vishālgarh,16.90,73.75,2221,673.03
Vita,17.28,74.55,2322,703.64
Vite,17.28,74.55,2322,703.64
Vitner,20.85,75.55,793,240.30
Viziadrug,16.57,73.33,0,0.00
Vovale,18.98,73.07,45,13.64
Vādi,18.22,72.96,3,0.91
Vādi,18.72,72.98,29,8.79
Vādi,21.45,74.85,616,186.67
Vāigaon,19.70,74.90,1561,473.03
Vākad,20.65,75.70,1108,335.76
Vākalghar,18.14,72.99,577,174.85
Vālsa,20.15,75.78,1850,560.61
Vālva,17.03,74.37,1784,540.61
Vālāval,16.00,73.63,88,26.67
Vāndell,18.48,72.95,629,190.61
Vāndre,18.39,72.98,633,191.82
Vāri,19.82,74.57,1601,485.15
Vāvi,19.78,74.25,1866,565.45
Vīr,18.12,74.10,1893,573.64
Wada,18.98,73.75,2093,634.24
Wadala,19.02,72.85,32,9.70
Wadala,20.38,73.98,2447,741.52
Wadala,19.02,72.85,32,9.70
Wadegaon,20.75,79.98,754,228.48
Wadegaon,20.58,76.83,964,292.12
Wadgaon,18.08,76.12,2168,656.97
Wadgaon,19.58,74.28,1824,552.73
Wadgaon,18.73,73.65,2125,643.94
Wadgaon,16.85,74.32,1833,555.45
Wadgaon,18.13,74.37,1784,540.61
Wadhiware,19.87,73.67,2027,614.24
Wadhona,20.98,78.35,1200,363.64
Wadhona,18.52,77.08,1692,512.73
Wadjhire,19.02,74.33,2240,678.79
Wadki,20.28,78.72,721,218.48
Wadner,20.85,76.33,853,258.48
Wadner,20.45,78.73,803,243.33
Wadner,21.05,77.18,1046,316.97
Wadnera,20.45,78.73,803,243.33
Wadwani,18.98,76.05,1568,475.15
Wafgaon,18.88,73.98,2322,703.64
Wagdari,17.63,76.37,1778,538.79
Wagholi,17.90,74.08,2637,799.09
Waghrul,19.95,75.97,1916,580.61
Wahegaon,19.77,75.68,1571,476.06
Wai,17.93,73.90,2355,713.64
Waigaon,20.63,78.60,820,248.48
Wairagarh,20.42,80.10,741,224.55
Wakad,20.03,76.68,1722,521.82
Waki,18.52,73.52,2165,656.06
Walgaon,21.01,77.70,994,301.21
Walki,18.95,74.75,2158,653.94
Walsang,17.60,76.08,1584,480.00
Waluj,19.80,75.23,1630,493.94
Waluj,19.80,75.23,1630,493.94
Walur,19.50,76.57,1397,423.33
Walwad,18.45,75.53,1870,566.67
Walāndi,18.23,76.97,1925,583.33
Wamanpalli,19.57,79.53,577,174.85
Wangepalli,19.42,79.98,416,126.06
Wani,20.07,78.95,748,226.67
Wanlesswadi,17.68,74.03,2158,653.94
Wanwas,17.68,74.03,2158,653.94
Wardha,20.33,80.10,767,232.42
Wardha,20.75,78.62,941,285.15
Wardhangarh,17.73,74.25,2673,810.00
Wardhangarth,17.73,74.25,2673,810.00
Warhona,19.43,77.88,1325,401.52
Warli,19.02,72.82,32,9.70
Warora,20.23,79.00,692,209.70
Warsa,20.60,79.95,688,208.48
Warsha,20.92,73.98,1932,585.45
Warvad,17.97,75.32,1719,520.91
Warwad,17.97,75.32,1719,520.91
Wasi,18.53,75.78,2362,715.76
Wathar,17.88,74.15,2709,820.91
Welhe,18.30,73.63,2408,729.70
Welhe,18.30,73.63,2408,729.70
Welhe,18.30,73.63,2408,729.70
Wigatpura,19.70,73.55,1922,582.42
Wihamandav,19.45,75.58,1433,434.24
Wihar,20.12,79.92,682,206.67
Wihar,20.12,79.92,682,206.67
Wihigaon,20.60,76.63,1026,310.91
Wirur,19.65,79.45,547,165.76
Worli,19.02,72.82,32,9.70
Wun,20.07,78.95,748,226.67
Wátár,17.88,74.15,2709,820.91
Wādhona,18.52,77.08,1692,512.73
Wādhona,18.53,77.07,1732,524.85
Wāghād,20.23,73.72,2093,634.24
Wālvad,18.62,74.95,2116,641.21
Wāngi,18.18,75.15,1742,527.88
Wāregaon,21.32,79.40,954,289.09
Wāri,19.45,75.72,1394,422.42
Wāshīm,20.10,77.15,1791,542.73
Yadala,19.02,72.85,32,9.70
Yamkanmardi,16.13,74.53,2201,666.97
Yavat,18.47,74.28,1961,594.24
Yavatmāl,20.40,78.13,1459,442.12
Yavluj,16.73,74.13,1893,573.64
Yelamb,18.80,75.83,2299,696.67
Yelaoda,18.53,73.90,1850,560.61
Yelbāra,20.23,78.32,997,302.12
Yeldāri,16.98,75.20,2296,695.76
Yelgaon,17.13,74.03,2162,655.15
Yellabara,20.23,78.32,997,302.12
Yelvan,16.85,73.83,2053,622.12
Yeola,20.03,74.48,1765,534.85
Yeotmāl,20.40,78.13,1459,442.12
Yerandavna,18.50,73.83,1889,572.42
Yerandeshwar,19.85,76.33,1788,541.82
Yerandwane,18.50,73.83,1889,572.42
Yeraoda,18.53,73.90,1850,560.61
Yeravda,18.53,73.90,1850,560.61
Yerli,20.92,76.48,797,241.52
Yermala,18.40,75.87,2299,696.67
Yevale,20.03,74.48,1765,534.85
Yewle,20.03,74.48,1765,534.85
Yusufbadgaon,18.63,76.12,2122,643.03
Yāval,21.17,75.70,646,195.76
Zirad,18.75,72.88,75,22.73
Zīrad,18.75,72.89,127,38.48
hatid,17.28,75.05,1748,529.70
kampti,21.23,79.20,885,268.18
Ïnt,18.62,75.60,2339,708.79
Ādas,18.77,76.23,2326,704.85
Ādoli,18.27,73.77,2109,639.09
Āgargaon,21.08,79.48,790,239.39
Āmbli,18.50,72.96,9,2.73
Āmbād,18.07,75.37,1738,526.67
Āmdāpur,20.40,76.43,1870,566.67
Āndarsul,20.00,74.57,1797,544.55
Āndher,20.15,76.23,1784,540.61
Ānjangaon,20.82,77.78,1141,345.76
Ānjarle,17.85,73.09,36,10.91
Āpta,18.87,73.13,200,60.61
Āpti,18.10,73.75,2201,666.97
Ārangaon,18.67,75.18,1807,547.58
Ārgaon,20.03,73.87,1922,582.42
Ārvi,18.45,74.67,1709,517.88
Āshta,21.28,74.22,948,287.27
Āshti,19.38,76.23,1381,418.48
Āshti,18.82,75.18,1988,602.42
Āshwi,19.52,74.37,1732,524.85
Āsoda,21.03,75.60,662,200.61
